City,Region,Country,Source,Code,Latitude,Longitude,Time_Zone,Elevation,URL
ALGIERS,-,DZA,IWEC Data,603900,36.72,3.25,1.0,25.0',https://energyplus-weather.s3.amazonaws.com/africa_wmo_region_1/DZA/DZA_Algiers.603900_IWEC/DZA_Algiers.603900_IWEC.epw
Al Minya,Al Minya,EGY,ETMY,623870,28.08,30.73,2.0,40.0',https://energyplus-weather.s3.amazonaws.com/africa_wmo_region_1/EGY/EGY_Al.Minya.623870_ETMY/EGY_Al.Minya.623870_ETMY.epw
Alexandria,Al Iskandariyah,EGY,ETMY,623180,31.20,29.95,2.0,7.0',https://energyplus-weather.s3.amazonaws.com/africa_wmo_region_1/EGY/EGY_Alexandria.623180_ETMY/EGY_Alexandria.623180_ETMY.epw
Aswan,Aswan,EGY,ETMY,624140,23.97,32.78,2.0,194.0',https://energyplus-weather.s3.amazonaws.com/africa_wmo_region_1/EGY/EGY_Aswan.624140_ETMY/EGY_Aswan.624140_ETMY.epw
ASWAN,-,EGY,IWEC Data,624140,23.97,32.78,2.0,194.0',https://energyplus-weather.s3.amazonaws.com/africa_wmo_region_1/EGY/EGY_Aswan.624140_IWEC/EGY_Aswan.624140_IWEC.epw
Asyut,Asyut,EGY,ETMY,623930,27.05,31.02,2.0,70.0',https://energyplus-weather.s3.amazonaws.com/africa_wmo_region_1/EGY/EGY_Asyut.623930_ETMY/EGY_Asyut.623930_ETMY.epw
CAIRO,-,EGY,IWEC Data,623660,30.13,31.40,2.0,74.0',https://energyplus-weather.s3.amazonaws.com/africa_wmo_region_1/EGY/EGY_Cairo.623660_IWEC/EGY_Cairo.623660_IWEC.epw
Cairo Intl Airport,Al Qahirah,EGY,ETMY,623660,30.13,31.40,2.0,74.0',https://energyplus-weather.s3.amazonaws.com/africa_wmo_region_1/EGY/EGY_Cairo.Intl.Airport.623660_ETMY/EGY_Cairo.Intl.Airport.623660_ETMY.epw
El Arish,Shamal Sina,EGY,ETMY,623370,31.08,33.82,2.0,32.0',https://energyplus-weather.s3.amazonaws.com/africa_wmo_region_1/EGY/EGY_El.Arish.623370_ETMY/EGY_El.Arish.623370_ETMY.epw
Helwan,Al Qahirah,EGY,ETMY,623780,29.87,31.33,2.0,141.0',https://energyplus-weather.s3.amazonaws.com/africa_wmo_region_1/EGY/EGY_Helwan.623780_ETMY/EGY_Helwan.623780_ETMY.epw
Hurghada,Al Bahr al Ahmar,EGY,ETMY,624630,27.15,33.72,2.0,14.0',https://energyplus-weather.s3.amazonaws.com/africa_wmo_region_1/EGY/EGY_Hurghada.624630_ETMY/EGY_Hurghada.624630_ETMY.epw
Ismailia,Al Ismailiyah,EGY,ETMY,624400,30.60,32.25,2.0,13.0',https://energyplus-weather.s3.amazonaws.com/africa_wmo_region_1/EGY/EGY_Ismailia.624400_ETMY/EGY_Ismailia.624400_ETMY.epw
Kharga,Al Wadi al Jadid,EGY,ETMY,624350,25.45,30.53,2.0,73.0',https://energyplus-weather.s3.amazonaws.com/africa_wmo_region_1/EGY/EGY_Kharga.624350_ETMY/EGY_Kharga.624350_ETMY.epw
Luxor,Qina,EGY,ETMY,624050,25.67,32.70,2.0,99.0',https://energyplus-weather.s3.amazonaws.com/africa_wmo_region_1/EGY/EGY_Luxor.624050_ETMY/EGY_Luxor.624050_ETMY.epw
Al Minya,Al Minya,EGY,ETMY,623870,28.08,30.73,2.0,40.0',https://energyplus-weather.s3.amazonaws.com/africa_wmo_region_1/EGY/EGY_Al.Minya.623870_ETMY/EGY_Al.Minya.623870_ETMY.epw
Alexandria,Al Iskandariyah,EGY,ETMY,623180,31.20,29.95,2.0,7.0',https://energyplus-weather.s3.amazonaws.com/africa_wmo_region_1/EGY/EGY_Alexandria.623180_ETMY/EGY_Alexandria.623180_ETMY.epw
Aswan,Aswan,EGY,ETMY,624140,23.97,32.78,2.0,194.0',https://energyplus-weather.s3.amazonaws.com/africa_wmo_region_1/EGY/EGY_Aswan.624140_ETMY/EGY_Aswan.624140_ETMY.epw
ASWAN,-,EGY,IWEC Data,624140,23.97,32.78,2.0,194.0',https://energyplus-weather.s3.amazonaws.com/africa_wmo_region_1/EGY/EGY_Aswan.624140_IWEC/EGY_Aswan.624140_IWEC.epw
Asyut,Asyut,EGY,ETMY,623930,27.05,31.02,2.0,70.0',https://energyplus-weather.s3.amazonaws.com/africa_wmo_region_1/EGY/EGY_Asyut.623930_ETMY/EGY_Asyut.623930_ETMY.epw
CAIRO,-,EGY,IWEC Data,623660,30.13,31.40,2.0,74.0',https://energyplus-weather.s3.amazonaws.com/africa_wmo_region_1/EGY/EGY_Cairo.623660_IWEC/EGY_Cairo.623660_IWEC.epw
Cairo Intl Airport,Al Qahirah,EGY,ETMY,623660,30.13,31.40,2.0,74.0',https://energyplus-weather.s3.amazonaws.com/africa_wmo_region_1/EGY/EGY_Cairo.Intl.Airport.623660_ETMY/EGY_Cairo.Intl.Airport.623660_ETMY.epw
El Arish,Shamal Sina,EGY,ETMY,623370,31.08,33.82,2.0,32.0',https://energyplus-weather.s3.amazonaws.com/africa_wmo_region_1/EGY/EGY_El.Arish.623370_ETMY/EGY_El.Arish.623370_ETMY.epw
Helwan,Al Qahirah,EGY,ETMY,623780,29.87,31.33,2.0,141.0',https://energyplus-weather.s3.amazonaws.com/africa_wmo_region_1/EGY/EGY_Helwan.623780_ETMY/EGY_Helwan.623780_ETMY.epw
Hurghada,Al Bahr al Ahmar,EGY,ETMY,624630,27.15,33.72,2.0,14.0',https://energyplus-weather.s3.amazonaws.com/africa_wmo_region_1/EGY/EGY_Hurghada.624630_ETMY/EGY_Hurghada.624630_ETMY.epw
Ismailia,Al Ismailiyah,EGY,ETMY,624400,30.60,32.25,2.0,13.0',https://energyplus-weather.s3.amazonaws.com/africa_wmo_region_1/EGY/EGY_Ismailia.624400_ETMY/EGY_Ismailia.624400_ETMY.epw
Kharga,Al Wadi al Jadid,EGY,ETMY,624350,25.45,30.53,2.0,73.0',https://energyplus-weather.s3.amazonaws.com/africa_wmo_region_1/EGY/EGY_Kharga.624350_ETMY/EGY_Kharga.624350_ETMY.epw
Luxor,Qina,EGY,ETMY,624050,25.67,32.70,2.0,99.0',https://energyplus-weather.s3.amazonaws.com/africa_wmo_region_1/EGY/EGY_Luxor.624050_ETMY/EGY_Luxor.624050_ETMY.epw
ADDIS_ABABA/BOLE,-,ETH,SWERA,634500,8.98,38.80,3.0,2355.0',https://energyplus-weather.s3.amazonaws.com/africa_wmo_region_1/ETH/ETH_Addis.Ababa-Bole.634500_SWERA/ETH_Addis.Ababa-Bole.634500_SWERA.epw
AWASSA_(LAKE),-,ETH,SWERA,634600,7.07,38.05,3.0,1652.0',https://energyplus-weather.s3.amazonaws.com/africa_wmo_region_1/ETH/ETH_Awassa.634600_SWERA/ETH_Awassa.634600_SWERA.epw
BAHAR_DAR,-,ETH,SWERA,633320,11.60,37.40,3.0,1820.0',https://energyplus-weather.s3.amazonaws.com/africa_wmo_region_1/ETH/ETH_Bahar.Dar.633320_SWERA/ETH_Bahar.Dar.633320_SWERA.epw
COMBOLCHA/DESSIE,-,ETH,SWERA,633330,11.08,39.72,3.0,1864.0',https://energyplus-weather.s3.amazonaws.com/africa_wmo_region_1/ETH/ETH_Combolcha.633330_SWERA/ETH_Combolcha.633330_SWERA.epw
DEBRE_MARCOS,-,ETH,SWERA,633340,10.35,37.72,3.0,2476.0',https://energyplus-weather.s3.amazonaws.com/africa_wmo_region_1/ETH/ETH_Debre.Marcos.633340_SWERA/ETH_Debre.Marcos.633340_SWERA.epw
DIRE_DAWA_(MIL/CIV),-,ETH,SWERA,634710,9.60,41.87,3.0,1146.0',https://energyplus-weather.s3.amazonaws.com/africa_wmo_region_1/ETH/ETH_Dire.Dawa.634710_SWERA/ETH_Dire.Dawa.634710_SWERA.epw
GONDAR,-,ETH,SWERA,633310,12.53,37.43,3.0,1985.0',https://energyplus-weather.s3.amazonaws.com/africa_wmo_region_1/ETH/ETH_Gondar.633310_SWERA/ETH_Gondar.633310_SWERA.epw
JIMMA,-,ETH,SWERA,634020,7.67,36.83,3.0,1676.0',https://energyplus-weather.s3.amazonaws.com/africa_wmo_region_1/ETH/ETH_Jimma.634020_SWERA/ETH_Jimma.634020_SWERA.epw
METEHARA,-,ETH,SWERA,634530,8.83,39.78,3.0,1062.0',https://energyplus-weather.s3.amazonaws.com/africa_wmo_region_1/ETH/ETH_Metehara.634530_SWERA/ETH_Metehara.634530_SWERA.epw
ADDIS_ABABA/BOLE,-,ETH,SWERA,634500,8.98,38.80,3.0,2355.0',https://energyplus-weather.s3.amazonaws.com/africa_wmo_region_1/ETH/ETH_Addis.Ababa-Bole.634500_SWERA/ETH_Addis.Ababa-Bole.634500_SWERA.epw
AWASSA_(LAKE),-,ETH,SWERA,634600,7.07,38.05,3.0,1652.0',https://energyplus-weather.s3.amazonaws.com/africa_wmo_region_1/ETH/ETH_Awassa.634600_SWERA/ETH_Awassa.634600_SWERA.epw
BAHAR_DAR,-,ETH,SWERA,633320,11.60,37.40,3.0,1820.0',https://energyplus-weather.s3.amazonaws.com/africa_wmo_region_1/ETH/ETH_Bahar.Dar.633320_SWERA/ETH_Bahar.Dar.633320_SWERA.epw
COMBOLCHA/DESSIE,-,ETH,SWERA,633330,11.08,39.72,3.0,1864.0',https://energyplus-weather.s3.amazonaws.com/africa_wmo_region_1/ETH/ETH_Combolcha.633330_SWERA/ETH_Combolcha.633330_SWERA.epw
DEBRE_MARCOS,-,ETH,SWERA,633340,10.35,37.72,3.0,2476.0',https://energyplus-weather.s3.amazonaws.com/africa_wmo_region_1/ETH/ETH_Debre.Marcos.633340_SWERA/ETH_Debre.Marcos.633340_SWERA.epw
DIRE_DAWA_(MIL/CIV),-,ETH,SWERA,634710,9.60,41.87,3.0,1146.0',https://energyplus-weather.s3.amazonaws.com/africa_wmo_region_1/ETH/ETH_Dire.Dawa.634710_SWERA/ETH_Dire.Dawa.634710_SWERA.epw
GONDAR,-,ETH,SWERA,633310,12.53,37.43,3.0,1985.0',https://energyplus-weather.s3.amazonaws.com/africa_wmo_region_1/ETH/ETH_Gondar.633310_SWERA/ETH_Gondar.633310_SWERA.epw
JIMMA,-,ETH,SWERA,634020,7.67,36.83,3.0,1676.0',https://energyplus-weather.s3.amazonaws.com/africa_wmo_region_1/ETH/ETH_Jimma.634020_SWERA/ETH_Jimma.634020_SWERA.epw
METEHARA,-,ETH,SWERA,634530,8.83,39.78,3.0,1062.0',https://energyplus-weather.s3.amazonaws.com/africa_wmo_region_1/ETH/ETH_Metehara.634530_SWERA/ETH_Metehara.634530_SWERA.epw
ACCRA/KOTOKA_INTL,-,GHA,SWERA,654720,5.60,-0.17,0.0,69.0',https://energyplus-weather.s3.amazonaws.com/africa_wmo_region_1/GHA/GHA_Accra.654720_SWERA/GHA_Accra.654720_SWERA.epw
ACCRA/KOTOKA_INTL,-,GHA,SWERA,654720,5.60,-0.17,0.0,69.0',https://energyplus-weather.s3.amazonaws.com/africa_wmo_region_1/GHA/GHA_Accra.654720_SWERA/GHA_Accra.654720_SWERA.epw
ELDORET,-,KEN,SWERA,636860,0.53,35.28,3.0,2133.0',https://energyplus-weather.s3.amazonaws.com/africa_wmo_region_1/KEN/KEN_Eldoret.636860_SWERA/KEN_Eldoret.636860_SWERA.epw
EMBU,-,KEN,SWERA,637200,-0.50,37.45,3.0,1493.0',https://energyplus-weather.s3.amazonaws.com/africa_wmo_region_1/KEN/KEN_Embu.637200_SWERA/KEN_Embu.637200_SWERA.epw
GARISSA,-,KEN,SWERA,637230,-0.47,39.63,3.0,147.0',https://energyplus-weather.s3.amazonaws.com/africa_wmo_region_1/KEN/KEN_Garissa.637230_SWERA/KEN_Garissa.637230_SWERA.epw
KAKAMEGA,-,KEN,SWERA,636870,0.28,34.78,3.0,1530.0',https://energyplus-weather.s3.amazonaws.com/africa_wmo_region_1/KEN/KEN_Kakamega.636870_SWERA/KEN_Kakamega.636870_SWERA.epw
KISII            _,-,KEN,SWERA,637090,-0.67,34.78,3.0,1493.0',https://energyplus-weather.s3.amazonaws.com/africa_wmo_region_1/KEN/KEN_Kisii.637090_SWERA/KEN_Kisii.637090_SWERA.epw
KISUMU,-,KEN,SWERA,637080,-0.10,34.75,3.0,1146.0',https://energyplus-weather.s3.amazonaws.com/africa_wmo_region_1/KEN/KEN_Kisumu.637080_SWERA/KEN_Kisumu.637080_SWERA.epw
Kitale,-,KEN,SWERA/EnergyPlu,636610,1.02,35.00,3.0,1875.0',https://energyplus-weather.s3.amazonaws.com/africa_wmo_region_1/KEN/KEN_Kitale.636610_SWERA/KEN_Kitale.636610_SWERA.epw
LAMU/MANDA_ISLAND,-,KEN,SWERA,637720,-2.27,40.83,3.0,6.0',https://energyplus-weather.s3.amazonaws.com/africa_wmo_region_1/KEN/KEN_Lamu-Manda.Island.637720_SWERA/KEN_Lamu-Manda.Island.637720_SWERA.epw
LODWAR,-,KEN,SWERA,636120,3.12,35.62,3.0,515.0',https://energyplus-weather.s3.amazonaws.com/africa_wmo_region_1/KEN/KEN_Lodwar.636120_SWERA/KEN_Lodwar.636120_SWERA.epw
MAKINDU,-,KEN,SWERA,637660,-2.28,37.83,3.0,1000.0',https://energyplus-weather.s3.amazonaws.com/africa_wmo_region_1/KEN/KEN_Makindu.637660_SWERA/KEN_Makindu.637660_SWERA.epw
MALINDI,-,KEN,SWERA,637990,-3.23,40.10,3.0,23.0',https://energyplus-weather.s3.amazonaws.com/africa_wmo_region_1/KEN/KEN_Malindi.637990_SWERA/KEN_Malindi.637990_SWERA.epw
MANDERA,-,KEN,SWERA,636240,3.93,41.87,3.0,231.0',https://energyplus-weather.s3.amazonaws.com/africa_wmo_region_1/KEN/KEN_Mandera.636240_SWERA/KEN_Mandera.636240_SWERA.epw
MARSABIT,-,KEN,SWERA,636410,2.30,37.90,3.0,1345.0',https://energyplus-weather.s3.amazonaws.com/africa_wmo_region_1/KEN/KEN_Marsabit.636410_SWERA/KEN_Marsabit.636410_SWERA.epw
MERU,-,KEN,SWERA,636950,0.08,37.65,3.0,1554.0',https://energyplus-weather.s3.amazonaws.com/africa_wmo_region_1/KEN/KEN_Meru.636950_SWERA/KEN_Meru.636950_SWERA.epw
MOMBASA/MOI_INTL,-,KEN,SWERA,638200,-4.03,39.62,3.0,55.0',https://energyplus-weather.s3.amazonaws.com/africa_wmo_region_1/KEN/KEN_Mombasa-Moi.638200_SWERA/KEN_Mombasa-Moi.638200_SWERA.epw
MOYALE_LOWER_(ODA),-,KEN,SWERA,636190,3.53,39.05,3.0,1097.0',https://energyplus-weather.s3.amazonaws.com/africa_wmo_region_1/KEN/KEN_Moyale.636190_SWERA/KEN_Moyale.636190_SWERA.epw
NAIROBI/DAGORETTI_,-,KEN,SWERA,637400,-1.30,36.75,3.0,1798.0',https://energyplus-weather.s3.amazonaws.com/africa_wmo_region_1/KEN/KEN_Nairobi-Dagoretti.637410_SWERA/KEN_Nairobi-Dagoretti.637410_SWERA.epw
NAIROBI/JOMO_KENYAT,-,KEN,SWERA,637400,-1.32,36.92,3.0,1624.0',https://energyplus-weather.s3.amazonaws.com/africa_wmo_region_1/KEN/KEN_Nairobi-Kenyatta.637400_SWERA/KEN_Nairobi-Kenyatta.637400_SWERA.epw
NAIROBI/WILSON,-,KEN,SWERA,637400,-1.32,36.82,3.0,1679.0',https://energyplus-weather.s3.amazonaws.com/africa_wmo_region_1/KEN/KEN_Nairobi-Wilson.637420_SWERA/KEN_Nairobi-Wilson.637420_SWERA.epw
NAIROBI,-,KEN,IWEC Data,637400,-1.32,36.92,3.0,1624.0',https://energyplus-weather.s3.amazonaws.com/africa_wmo_region_1/KEN/KEN_Nairobi.637400_IWEC/KEN_Nairobi.637400_IWEC.epw
NAKURU,-,KEN,SWERA,637140,-0.27,36.10,3.0,1901.0',https://energyplus-weather.s3.amazonaws.com/africa_wmo_region_1/KEN/KEN_Nakuru.637140_SWERA/KEN_Nakuru.637140_SWERA.epw
NAROK,-,KEN,SWERA,637370,-1.13,35.83,3.0,1890.0',https://energyplus-weather.s3.amazonaws.com/africa_wmo_region_1/KEN/KEN_Narok.637370_SWERA/KEN_Narok.637370_SWERA.epw
NYERI,-,KEN,SWERA,637170,-0.50,36.97,3.0,1759.0',https://energyplus-weather.s3.amazonaws.com/africa_wmo_region_1/KEN/KEN_Nyeri.637170_SWERA/KEN_Nyeri.637170_SWERA.epw
VOI,-,KEN,SWERA,637930,-3.40,38.57,3.0,579.0',https://energyplus-weather.s3.amazonaws.com/africa_wmo_region_1/KEN/KEN_Voi.637930_SWERA/KEN_Voi.637930_SWERA.epw
ELDORET,-,KEN,SWERA,636860,0.53,35.28,3.0,2133.0',https://energyplus-weather.s3.amazonaws.com/africa_wmo_region_1/KEN/KEN_Eldoret.636860_SWERA/KEN_Eldoret.636860_SWERA.epw
EMBU,-,KEN,SWERA,637200,-0.50,37.45,3.0,1493.0',https://energyplus-weather.s3.amazonaws.com/africa_wmo_region_1/KEN/KEN_Embu.637200_SWERA/KEN_Embu.637200_SWERA.epw
GARISSA,-,KEN,SWERA,637230,-0.47,39.63,3.0,147.0',https://energyplus-weather.s3.amazonaws.com/africa_wmo_region_1/KEN/KEN_Garissa.637230_SWERA/KEN_Garissa.637230_SWERA.epw
KAKAMEGA,-,KEN,SWERA,636870,0.28,34.78,3.0,1530.0',https://energyplus-weather.s3.amazonaws.com/africa_wmo_region_1/KEN/KEN_Kakamega.636870_SWERA/KEN_Kakamega.636870_SWERA.epw
KISII            _,-,KEN,SWERA,637090,-0.67,34.78,3.0,1493.0',https://energyplus-weather.s3.amazonaws.com/africa_wmo_region_1/KEN/KEN_Kisii.637090_SWERA/KEN_Kisii.637090_SWERA.epw
KISUMU,-,KEN,SWERA,637080,-0.10,34.75,3.0,1146.0',https://energyplus-weather.s3.amazonaws.com/africa_wmo_region_1/KEN/KEN_Kisumu.637080_SWERA/KEN_Kisumu.637080_SWERA.epw
Kitale,-,KEN,SWERA/EnergyPlu,636610,1.02,35.00,3.0,1875.0',https://energyplus-weather.s3.amazonaws.com/africa_wmo_region_1/KEN/KEN_Kitale.636610_SWERA/KEN_Kitale.636610_SWERA.epw
LAMU/MANDA_ISLAND,-,KEN,SWERA,637720,-2.27,40.83,3.0,6.0',https://energyplus-weather.s3.amazonaws.com/africa_wmo_region_1/KEN/KEN_Lamu-Manda.Island.637720_SWERA/KEN_Lamu-Manda.Island.637720_SWERA.epw
LODWAR,-,KEN,SWERA,636120,3.12,35.62,3.0,515.0',https://energyplus-weather.s3.amazonaws.com/africa_wmo_region_1/KEN/KEN_Lodwar.636120_SWERA/KEN_Lodwar.636120_SWERA.epw
MAKINDU,-,KEN,SWERA,637660,-2.28,37.83,3.0,1000.0',https://energyplus-weather.s3.amazonaws.com/africa_wmo_region_1/KEN/KEN_Makindu.637660_SWERA/KEN_Makindu.637660_SWERA.epw
MALINDI,-,KEN,SWERA,637990,-3.23,40.10,3.0,23.0',https://energyplus-weather.s3.amazonaws.com/africa_wmo_region_1/KEN/KEN_Malindi.637990_SWERA/KEN_Malindi.637990_SWERA.epw
MANDERA,-,KEN,SWERA,636240,3.93,41.87,3.0,231.0',https://energyplus-weather.s3.amazonaws.com/africa_wmo_region_1/KEN/KEN_Mandera.636240_SWERA/KEN_Mandera.636240_SWERA.epw
MARSABIT,-,KEN,SWERA,636410,2.30,37.90,3.0,1345.0',https://energyplus-weather.s3.amazonaws.com/africa_wmo_region_1/KEN/KEN_Marsabit.636410_SWERA/KEN_Marsabit.636410_SWERA.epw
MERU,-,KEN,SWERA,636950,0.08,37.65,3.0,1554.0',https://energyplus-weather.s3.amazonaws.com/africa_wmo_region_1/KEN/KEN_Meru.636950_SWERA/KEN_Meru.636950_SWERA.epw
MOMBASA/MOI_INTL,-,KEN,SWERA,638200,-4.03,39.62,3.0,55.0',https://energyplus-weather.s3.amazonaws.com/africa_wmo_region_1/KEN/KEN_Mombasa-Moi.638200_SWERA/KEN_Mombasa-Moi.638200_SWERA.epw
MOYALE_LOWER_(ODA),-,KEN,SWERA,636190,3.53,39.05,3.0,1097.0',https://energyplus-weather.s3.amazonaws.com/africa_wmo_region_1/KEN/KEN_Moyale.636190_SWERA/KEN_Moyale.636190_SWERA.epw
NAIROBI/DAGORETTI_,-,KEN,SWERA,637400,-1.30,36.75,3.0,1798.0',https://energyplus-weather.s3.amazonaws.com/africa_wmo_region_1/KEN/KEN_Nairobi-Dagoretti.637410_SWERA/KEN_Nairobi-Dagoretti.637410_SWERA.epw
NAIROBI/JOMO_KENYAT,-,KEN,SWERA,637400,-1.32,36.92,3.0,1624.0',https://energyplus-weather.s3.amazonaws.com/africa_wmo_region_1/KEN/KEN_Nairobi-Kenyatta.637400_SWERA/KEN_Nairobi-Kenyatta.637400_SWERA.epw
NAIROBI/WILSON,-,KEN,SWERA,637400,-1.32,36.82,3.0,1679.0',https://energyplus-weather.s3.amazonaws.com/africa_wmo_region_1/KEN/KEN_Nairobi-Wilson.637420_SWERA/KEN_Nairobi-Wilson.637420_SWERA.epw
NAIROBI,-,KEN,IWEC Data,637400,-1.32,36.92,3.0,1624.0',https://energyplus-weather.s3.amazonaws.com/africa_wmo_region_1/KEN/KEN_Nairobi.637400_IWEC/KEN_Nairobi.637400_IWEC.epw
NAKURU,-,KEN,SWERA,637140,-0.27,36.10,3.0,1901.0',https://energyplus-weather.s3.amazonaws.com/africa_wmo_region_1/KEN/KEN_Nakuru.637140_SWERA/KEN_Nakuru.637140_SWERA.epw
NAROK,-,KEN,SWERA,637370,-1.13,35.83,3.0,1890.0',https://energyplus-weather.s3.amazonaws.com/africa_wmo_region_1/KEN/KEN_Narok.637370_SWERA/KEN_Narok.637370_SWERA.epw
NYERI,-,KEN,SWERA,637170,-0.50,36.97,3.0,1759.0',https://energyplus-weather.s3.amazonaws.com/africa_wmo_region_1/KEN/KEN_Nyeri.637170_SWERA/KEN_Nyeri.637170_SWERA.epw
VOI,-,KEN,SWERA,637930,-3.40,38.57,3.0,579.0',https://energyplus-weather.s3.amazonaws.com/africa_wmo_region_1/KEN/KEN_Voi.637930_SWERA/KEN_Voi.637930_SWERA.epw
TRIPOLI,-,LBY,IWEC Data,620100,32.67,13.15,2.0,81.0',https://energyplus-weather.s3.amazonaws.com/africa_wmo_region_1/LBY/LBY_Tripoli.620100_IWEC/LBY_Tripoli.620100_IWEC.epw
TRIPOLI,-,LBY,IWEC Data,620100,32.67,13.15,2.0,81.0',https://energyplus-weather.s3.amazonaws.com/africa_wmo_region_1/LBY/LBY_Tripoli.620100_IWEC/LBY_Tripoli.620100_IWEC.epw
CASABLANCA/NOUASSER,-,MAR,IWEC Data,601560,33.37,-7.58,0.0,206.0',https://energyplus-weather.s3.amazonaws.com/africa_wmo_region_1/MAR/MAR_Casablanca.Nouasser.601560_IWEC/MAR_Casablanca.Nouasser.601560_IWEC.epw
CASABLANCA/NOUASSER,-,MAR,IWEC Data,601560,33.37,-7.58,0.0,206.0',https://energyplus-weather.s3.amazonaws.com/africa_wmo_region_1/MAR/MAR_Casablanca.Nouasser.601560_IWEC/MAR_Casablanca.Nouasser.601560_IWEC.epw
ANTANANARIVO,-,MDG,IWEC Data,670830,-18.80,47.48,3.0,1276.0',https://energyplus-weather.s3.amazonaws.com/africa_wmo_region_1/MDG/MDG_Antananarivo.670830_IWEC/MDG_Antananarivo.670830_IWEC.epw
ANTANANARIVO,-,MDG,IWEC Data,670830,-18.80,47.48,3.0,1276.0',https://energyplus-weather.s3.amazonaws.com/africa_wmo_region_1/MDG/MDG_Antananarivo.670830_IWEC/MDG_Antananarivo.670830_IWEC.epw
DAKAR,-,SEN,IWEC Data,616410,14.73,-17.50,0.0,24.0',https://energyplus-weather.s3.amazonaws.com/africa_wmo_region_1/SEN/SEN_Dakar.616410_IWEC/SEN_Dakar.616410_IWEC.epw
DAKAR,-,SEN,IWEC Data,616410,14.73,-17.50,0.0,24.0',https://energyplus-weather.s3.amazonaws.com/africa_wmo_region_1/SEN/SEN_Dakar.616410_IWEC/SEN_Dakar.616410_IWEC.epw
TUNIS,-,TUN,IWEC Data,607150,36.83,10.23,1.0,4.0',https://energyplus-weather.s3.amazonaws.com/africa_wmo_region_1/TUN/TUN_Tunis.607150_IWEC/TUN_Tunis.607150_IWEC.epw
TUNIS,-,TUN,IWEC Data,607150,36.83,10.23,1.0,4.0',https://energyplus-weather.s3.amazonaws.com/africa_wmo_region_1/TUN/TUN_Tunis.607150_IWEC/TUN_Tunis.607150_IWEC.epw
CAPE TOWN,-,ZAF,IWEC Data,688160,-33.98,18.60,2.0,42.0',https://energyplus-weather.s3.amazonaws.com/africa_wmo_region_1/ZAF/ZAF_Cape.Town.688160_IWEC/ZAF_Cape.Town.688160_IWEC.epw
JOHANNESBURG,-,ZAF,IWEC Data,683680,-26.13,28.23,2.0,1700.0',https://energyplus-weather.s3.amazonaws.com/africa_wmo_region_1/ZAF/ZAF_Johannesburg.683680_IWEC/ZAF_Johannesburg.683680_IWEC.epw
CAPE TOWN,-,ZAF,IWEC Data,688160,-33.98,18.60,2.0,42.0',https://energyplus-weather.s3.amazonaws.com/africa_wmo_region_1/ZAF/ZAF_Cape.Town.688160_IWEC/ZAF_Cape.Town.688160_IWEC.epw
JOHANNESBURG,-,ZAF,IWEC Data,683680,-26.13,28.23,2.0,1700.0',https://energyplus-weather.s3.amazonaws.com/africa_wmo_region_1/ZAF/ZAF_Johannesburg.683680_IWEC/ZAF_Johannesburg.683680_IWEC.epw
HARARE,-,ZWE,IWEC Data,677750,-17.92,31.13,2.0,1503.0',https://energyplus-weather.s3.amazonaws.com/africa_wmo_region_1/ZWE/ZWE_Harare.677750_IWEC/ZWE_Harare.677750_IWEC.epw
HARARE,-,ZWE,IWEC Data,677750,-17.92,31.13,2.0,1503.0',https://energyplus-weather.s3.amazonaws.com/africa_wmo_region_1/ZWE/ZWE_Harare.677750_IWEC/ZWE_Harare.677750_IWEC.epw
ABU DHABI,-,ARE,IWEC Data,412170,24.43,54.65,4.0,27.0',https://energyplus-weather.s3.amazonaws.com/asia_wmo_region_2/ARE/ARE_Abu.Dhabi.412170_IWEC/ARE_Abu.Dhabi.412170_IWEC.epw
ABU DHABI,-,ARE,IWEC Data,412170,24.43,54.65,4.0,27.0',https://energyplus-weather.s3.amazonaws.com/asia_wmo_region_2/ARE/ARE_Abu.Dhabi.412170_IWEC/ARE_Abu.Dhabi.412170_IWEC.epw
BOGRA,-,BGD,SWERA,418830,24.85,89.37,6.0,20.0',https://energyplus-weather.s3.amazonaws.com/asia_wmo_region_2/BGD/BGD_Bogra.418830_SWERA/BGD_Bogra.418830_SWERA.epw
Chittagong/Patenga (CI,-,BGD,SWERA,419780,22.27,91.82,6.0,6.0',https://energyplus-weather.s3.amazonaws.com/asia_wmo_region_2/BGD/BGD_Chittagong-Patenga.419780_SWERA/BGD_Chittagong-Patenga.419780_SWERA.epw
COX'S_BAZAR,-,BGD,SWERA,419920,21.43,91.97,6.0,4.0",https://energyplus-weather.s3.amazonaws.com/asia_wmo_region_2/BGD/BGD_Coxs.Bazar.419920_SWERA/BGD_Coxs.Bazar.419920_SWERA.epw
DHAKA/TEJGAON_(MIL),-,BGD,SWERA,419230,23.77,90.38,6.0,9.0',https://energyplus-weather.s3.amazonaws.com/asia_wmo_region_2/BGD/BGD_Dhaka.419230_SWERA/BGD_Dhaka.419230_SWERA.epw
ISHURDI,-,BGD,SWERA,419070,24.13,89.05,6.0,14.0',https://energyplus-weather.s3.amazonaws.com/asia_wmo_region_2/BGD/BGD_Ishurdi.419070_SWERA/BGD_Ishurdi.419070_SWERA.epw
JESSORE_(CIV/MIL),-,BGD,SWERA,419360,23.18,89.17,6.0,7.0',https://energyplus-weather.s3.amazonaws.com/asia_wmo_region_2/BGD/BGD_Jessore.419360_SWERA/BGD_Jessore.419360_SWERA.epw
RANGPUR,-,BGD,SWERA,418590,25.73,89.23,6.0,34.0',https://energyplus-weather.s3.amazonaws.com/asia_wmo_region_2/BGD/BGD_Rangpur.418590_SWERA/BGD_Rangpur.418590_SWERA.epw
SYLHET_OSMANI,-,BGD,SWERA,418910,24.90,91.88,6.0,35.0',https://energyplus-weather.s3.amazonaws.com/asia_wmo_region_2/BGD/BGD_Sylhet.418910_SWERA/BGD_Sylhet.418910_SWERA.epw
BOGRA,-,BGD,SWERA,418830,24.85,89.37,6.0,20.0',https://energyplus-weather.s3.amazonaws.com/asia_wmo_region_2/BGD/BGD_Bogra.418830_SWERA/BGD_Bogra.418830_SWERA.epw
Chittagong/Patenga (CI,-,BGD,SWERA,419780,22.27,91.82,6.0,6.0',https://energyplus-weather.s3.amazonaws.com/asia_wmo_region_2/BGD/BGD_Chittagong-Patenga.419780_SWERA/BGD_Chittagong-Patenga.419780_SWERA.epw
COX'S_BAZAR,-,BGD,SWERA,419920,21.43,91.97,6.0,4.0",https://energyplus-weather.s3.amazonaws.com/asia_wmo_region_2/BGD/BGD_Coxs.Bazar.419920_SWERA/BGD_Coxs.Bazar.419920_SWERA.epw
DHAKA/TEJGAON_(MIL),-,BGD,SWERA,419230,23.77,90.38,6.0,9.0',https://energyplus-weather.s3.amazonaws.com/asia_wmo_region_2/BGD/BGD_Dhaka.419230_SWERA/BGD_Dhaka.419230_SWERA.epw
ISHURDI,-,BGD,SWERA,419070,24.13,89.05,6.0,14.0',https://energyplus-weather.s3.amazonaws.com/asia_wmo_region_2/BGD/BGD_Ishurdi.419070_SWERA/BGD_Ishurdi.419070_SWERA.epw
JESSORE_(CIV/MIL),-,BGD,SWERA,419360,23.18,89.17,6.0,7.0',https://energyplus-weather.s3.amazonaws.com/asia_wmo_region_2/BGD/BGD_Jessore.419360_SWERA/BGD_Jessore.419360_SWERA.epw
RANGPUR,-,BGD,SWERA,418590,25.73,89.23,6.0,34.0',https://energyplus-weather.s3.amazonaws.com/asia_wmo_region_2/BGD/BGD_Rangpur.418590_SWERA/BGD_Rangpur.418590_SWERA.epw
SYLHET_OSMANI,-,BGD,SWERA,418910,24.90,91.88,6.0,35.0',https://energyplus-weather.s3.amazonaws.com/asia_wmo_region_2/BGD/BGD_Sylhet.418910_SWERA/BGD_Sylhet.418910_SWERA.epw
Anqing,Anhui,CHN,CSWD,584240,30.53,117.05,8.0,19.8',https://energyplus-weather.s3.amazonaws.com/asia_wmo_region_2/CHN/CHN_Anhui.Anqing.584240_CSWD/CHN_Anhui.Anqing.584240_CSWD.epw
Bengbu,Anhui,CHN,CSWD,582210,32.95,117.38,8.0,18.7',https://energyplus-weather.s3.amazonaws.com/asia_wmo_region_2/CHN/CHN_Anhui.Bengbu.582210_CSWD/CHN_Anhui.Bengbu.582210_CSWD.epw
Boxian,Anhui,CHN,CSWD,581020,33.87,115.77,8.0,37.7',https://energyplus-weather.s3.amazonaws.com/asia_wmo_region_2/CHN/CHN_Anhui.Boxian.581020_CSWD/CHN_Anhui.Boxian.581020_CSWD.epw
Dongcheng,Anhui,CHN,CSWD,583190,31.07,116.95,8.0,85.4',https://energyplus-weather.s3.amazonaws.com/asia_wmo_region_2/CHN/CHN_Anhui.Dongcheng.583190_CSWD/CHN_Anhui.Dongcheng.583190_CSWD.epw
Hefei,Anhui,CHN,CSWD,583210,31.87,117.23,8.0,26.8',https://energyplus-weather.s3.amazonaws.com/asia_wmo_region_2/CHN/CHN_Anhui.Hefei.583210_CSWD/CHN_Anhui.Hefei.583210_CSWD.epw
HEFEI/LUOGANG,-,CHN,SWERA,583210,31.87,117.23,8.0,36.0',https://energyplus-weather.s3.amazonaws.com/asia_wmo_region_2/CHN/CHN_Anhui.Hefei.583210_SWERA/CHN_Anhui.Hefei.583210_SWERA.epw
Huoshan,Anhui,CHN,CSWD,583140,31.40,116.32,8.0,68.1',https://energyplus-weather.s3.amazonaws.com/asia_wmo_region_2/CHN/CHN_Anhui.Huoshan.583140_CSWD/CHN_Anhui.Huoshan.583140_CSWD.epw
Shouxian,Anhui,CHN,CSWD,582150,32.55,116.78,8.0,22.7',https://energyplus-weather.s3.amazonaws.com/asia_wmo_region_2/CHN/CHN_Anhui.Shouxian.582150_CSWD/CHN_Anhui.Shouxian.582150_CSWD.epw
Tunxi,Anhui,CHN,CSWD,585310,29.72,118.28,8.0,142.7',https://energyplus-weather.s3.amazonaws.com/asia_wmo_region_2/CHN/CHN_Anhui.Tunxi.585310_CSWD/CHN_Anhui.Tunxi.585310_CSWD.epw
Beijing,Beijing,CHN,CSWD,545110,39.80,116.47,8.0,31.3',https://energyplus-weather.s3.amazonaws.com/asia_wmo_region_2/CHN/CHN_Beijing.Beijing.545110_CSWD/CHN_Beijing.Beijing.545110_CSWD.epw
BEIJING,-,CHN,IWEC Data,545110,39.80,116.47,8.0,32.0',https://energyplus-weather.s3.amazonaws.com/asia_wmo_region_2/CHN/CHN_Beijing.Beijing.545110_IWEC/CHN_Beijing.Beijing.545110_IWEC.epw
BEIJING/PEKING,-,CHN,SWERA,545110,39.93,116.28,8.0,55.0',https://energyplus-weather.s3.amazonaws.com/asia_wmo_region_2/CHN/CHN_Beijing.Beijing.545110_SWERA/CHN_Beijing.Beijing.545110_SWERA.epw
Miyun,Beijing,CHN,CSWD,544160,40.38,116.87,8.0,71.8',https://energyplus-weather.s3.amazonaws.com/asia_wmo_region_2/CHN/CHN_Beijing.Miyun.544160_CSWD/CHN_Beijing.Miyun.544160_CSWD.epw
Chongqing Shapingba,Chongqing,CHN,CSWD,575160,29.58,106.47,8.0,259.1',https://energyplus-weather.s3.amazonaws.com/asia_wmo_region_2/CHN/CHN_Chongqing.Chongqing.Shapingba.575160_CSWD/CHN_Chongqing.Chongqing.Shapingba.575160_CSWD.epw
CHONGQING/CHUNGKING,-,CHN,SWERA,575160,29.52,106.48,8.0,351.0',https://energyplus-weather.s3.amazonaws.com/asia_wmo_region_2/CHN/CHN_Chongqing.Chongqing.Shapingba.575160_SWERA/CHN_Chongqing.Chongqing.Shapingba.575160_SWERA.epw
Youyang,Chongqing,CHN,CSWD,576330,28.83,108.77,8.0,664.1',https://energyplus-weather.s3.amazonaws.com/asia_wmo_region_2/CHN/CHN_Chongqing.Youyang.576330_CSWD/CHN_Chongqing.Youyang.576330_CSWD.epw
Congwu,Fujian,CHN,CSWD,591330,24.90,118.92,8.0,21.8',https://energyplus-weather.s3.amazonaws.com/asia_wmo_region_2/CHN/CHN_Fujian.Congwu.591330_CSWD/CHN_Fujian.Congwu.591330_CSWD.epw
Fuzhou,Fujian,CHN,CSWD,588470,26.08,119.28,8.0,4.0',https://energyplus-weather.s3.amazonaws.com/asia_wmo_region_2/CHN/CHN_Fujian.Fuzhou.588470_CSWD/CHN_Fujian.Fuzhou.588470_CSWD.epw
Jianou,Fujian,CHN,CSWD,587370,27.05,118.32,8.0,154.9',https://energyplus-weather.s3.amazonaws.com/asia_wmo_region_2/CHN/CHN_Fujian.Jianou.587370_CSWD/CHN_Fujian.Jianou.587370_CSWD.epw
Nanping,Fujian,CHN,CSWD,588340,26.65,118.17,8.0,125.1',https://energyplus-weather.s3.amazonaws.com/asia_wmo_region_2/CHN/CHN_Fujian.Nanping.588340_CSWD/CHN_Fujian.Nanping.588340_CSWD.epw
Shanghang,Fujian,CHN,CSWD,589180,25.05,116.42,8.0,198.0',https://energyplus-weather.s3.amazonaws.com/asia_wmo_region_2/CHN/CHN_Fujian.Shanghang.589180_CSWD/CHN_Fujian.Shanghang.589180_CSWD.epw
Xiamen,Fujian,CHN,CSWD,591340,24.48,118.07,8.0,139.4',https://energyplus-weather.s3.amazonaws.com/asia_wmo_region_2/CHN/CHN_Fujian.Xiamen.591340_CSWD/CHN_Fujian.Xiamen.591340_CSWD.epw
Yongan,Fujian,CHN,CSWD,589210,25.97,117.35,8.0,206.0',https://energyplus-weather.s3.amazonaws.com/asia_wmo_region_2/CHN/CHN_Fujian.Yongan.589210_CSWD/CHN_Fujian.Yongan.589210_CSWD.epw
Dunhuang,Gansu,CHN,CSWD,524180,40.15,94.68,8.0,1139.0',https://energyplus-weather.s3.amazonaws.com/asia_wmo_region_2/CHN/CHN_Gansu.Dunhuang.524180_CSWD/CHN_Gansu.Dunhuang.524180_CSWD.epw
Hezuo,Gansu,CHN,CSWD,560800,35.00,102.90,8.0,2910.0',https://energyplus-weather.s3.amazonaws.com/asia_wmo_region_2/CHN/CHN_Gansu.Hezuo.560800_CSWD/CHN_Gansu.Hezuo.560800_CSWD.epw
Jiuquan,Gansu,CHN,CSWD,525330,39.77,98.48,8.0,1477.2',https://energyplus-weather.s3.amazonaws.com/asia_wmo_region_2/CHN/CHN_Gansu.Jiuquan.525330_CSWD/CHN_Gansu.Jiuquan.525330_CSWD.epw
Lanzhou,Gansu,CHN,CSWD,528890,36.05,103.88,8.0,1517.2',https://energyplus-weather.s3.amazonaws.com/asia_wmo_region_2/CHN/CHN_Gansu.Lanzhou.528890_CSWD/CHN_Gansu.Lanzhou.528890_CSWD.epw
LANZHOU,-,CHN,IWEC Data,528890,36.05,103.88,8.0,1518.0',https://energyplus-weather.s3.amazonaws.com/asia_wmo_region_2/CHN/CHN_Gansu.Lanzhou.528890_IWEC/CHN_Gansu.Lanzhou.528890_IWEC.epw
LANZHOU,-,CHN,SWERA,528890,36.05,103.88,8.0,1518.0',https://energyplus-weather.s3.amazonaws.com/asia_wmo_region_2/CHN/CHN_Gansu.Lanzhou.528890_SWERA/CHN_Gansu.Lanzhou.528890_SWERA.epw
Minqin,Gansu,CHN,CSWD,526810,38.63,103.08,8.0,1367.5',https://energyplus-weather.s3.amazonaws.com/asia_wmo_region_2/CHN/CHN_Gansu.Minqin.526810_CSWD/CHN_Gansu.Minqin.526810_CSWD.epw
MINQIN,-,CHN,SWERA,526810,38.77,103.10,8.0,1367.0',https://energyplus-weather.s3.amazonaws.com/asia_wmo_region_2/CHN/CHN_Gansu.Minqin.526810_SWERA/CHN_Gansu.Minqin.526810_SWERA.epw
Minxian,Gansu,CHN,CSWD,560930,34.43,104.02,8.0,2315.0',https://energyplus-weather.s3.amazonaws.com/asia_wmo_region_2/CHN/CHN_Gansu.Minxian.560930_CSWD/CHN_Gansu.Minxian.560930_CSWD.epw
Pingliang,Gansu,CHN,CSWD,539150,35.55,106.67,8.0,1346.6',https://energyplus-weather.s3.amazonaws.com/asia_wmo_region_2/CHN/CHN_Gansu.Pingliang.539150_CSWD/CHN_Gansu.Pingliang.539150_CSWD.epw
Tianshui,Gansu,CHN,CSWD,570060,34.58,105.75,8.0,1141.7',https://energyplus-weather.s3.amazonaws.com/asia_wmo_region_2/CHN/CHN_Gansu.Tianshui.570060_CSWD/CHN_Gansu.Tianshui.570060_CSWD.epw
Wudu,Gansu,CHN,CSWD,560960,33.40,104.92,8.0,1079.1',https://energyplus-weather.s3.amazonaws.com/asia_wmo_region_2/CHN/CHN_Gansu.Wudu.560960_CSWD/CHN_Gansu.Wudu.560960_CSWD.epw
WUDU,-,CHN,SWERA,560960,33.40,104.92,8.0,1079.0',https://energyplus-weather.s3.amazonaws.com/asia_wmo_region_2/CHN/CHN_Gansu.Wudu.560960_SWERA/CHN_Gansu.Wudu.560960_SWERA.epw
Wushaoling,Gansu,CHN,CSWD,527870,37.20,102.87,8.0,3045.1',https://energyplus-weather.s3.amazonaws.com/asia_wmo_region_2/CHN/CHN_Gansu.Wushaoling.527870_CSWD/CHN_Gansu.Wushaoling.527870_CSWD.epw
Xifengzhen,Gansu,CHN,CSWD,539230,35.73,107.63,8.0,1421.0',https://energyplus-weather.s3.amazonaws.com/asia_wmo_region_2/CHN/CHN_Gansu.Xifengzhen.539230_CSWD/CHN_Gansu.Xifengzhen.539230_CSWD.epw
Yumenzhen,Gansu,CHN,CSWD,524360,40.27,97.03,8.0,1526.0',https://energyplus-weather.s3.amazonaws.com/asia_wmo_region_2/CHN/CHN_Gansu.Yumenzhen.524360_CSWD/CHN_Gansu.Yumenzhen.524360_CSWD.epw
YUMENZHEN,-,CHN,SWERA,524360,40.27,97.03,8.0,1527.0',https://energyplus-weather.s3.amazonaws.com/asia_wmo_region_2/CHN/CHN_Gansu.Yumenzhen.524360_SWERA/CHN_Gansu.Yumenzhen.524360_SWERA.epw
Yuzhong,Gansu,CHN,CSWD,529830,35.87,104.15,8.0,1874.4',https://energyplus-weather.s3.amazonaws.com/asia_wmo_region_2/CHN/CHN_Gansu.Yuzhong.529830_CSWD/CHN_Gansu.Yuzhong.529830_CSWD.epw
Dianbai,Guangdong,CHN,CSWD,596640,21.50,111.00,8.0,11.8',https://energyplus-weather.s3.amazonaws.com/asia_wmo_region_2/CHN/CHN_Guangdong.Dianbai.596640_CSWD/CHN_Guangdong.Dianbai.596640_CSWD.epw
Guangzhou,Guangdong,CHN,CSWD,592870,23.17,113.33,8.0,41.0',https://energyplus-weather.s3.amazonaws.com/asia_wmo_region_2/CHN/CHN_Guangdong.Guangzhou.592870_CSWD/CHN_Guangdong.Guangzhou.592870_CSWD.epw
GUANGZHOU,-,CHN,IWEC Data,592870,23.13,113.32,8.0,8.0',https://energyplus-weather.s3.amazonaws.com/asia_wmo_region_2/CHN/CHN_Guangdong.Guangzhou.592870_IWEC/CHN_Guangdong.Guangzhou.592870_IWEC.epw
Heyuan,Guangdong,CHN,CSWD,592930,23.73,114.68,8.0,40.6',https://energyplus-weather.s3.amazonaws.com/asia_wmo_region_2/CHN/CHN_Guangdong.Heyuan.592930_CSWD/CHN_Guangdong.Heyuan.592930_CSWD.epw
Nanxiong,Guangdong,CHN,CSWD,579960,25.13,114.32,8.0,133.8',https://energyplus-weather.s3.amazonaws.com/asia_wmo_region_2/CHN/CHN_Guangdong.Nanxiong.579960_CSWD/CHN_Guangdong.Nanxiong.579960_CSWD.epw
Shantou,Guangdong,CHN,CSWD,593160,23.40,116.68,8.0,2.9',https://energyplus-weather.s3.amazonaws.com/asia_wmo_region_2/CHN/CHN_Guangdong.Shantou.593160_CSWD/CHN_Guangdong.Shantou.593160_CSWD.epw
Shanwei,Guangdong,CHN,CSWD,595010,22.80,115.37,8.0,17.3',https://energyplus-weather.s3.amazonaws.com/asia_wmo_region_2/CHN/CHN_Guangdong.Shanwei.595010_CSWD/CHN_Guangdong.Shanwei.595010_CSWD.epw
Shaoguan,Guangdong,CHN,CSWD,590820,24.68,113.60,8.0,61.0',https://energyplus-weather.s3.amazonaws.com/asia_wmo_region_2/CHN/CHN_Guangdong.Shaoguan.590820_CSWD/CHN_Guangdong.Shaoguan.590820_CSWD.epw
SHENZHEN,-,CHN,SWERA,594930,22.55,114.10,8.0,18.0',https://energyplus-weather.s3.amazonaws.com/asia_wmo_region_2/CHN/CHN_Guangdong.Shenzhen.594930_SWERA/CHN_Guangdong.Shenzhen.594930_SWERA.epw
Yangjiang,Guangdong,CHN,CSWD,596630,21.87,111.97,8.0,23.3',https://energyplus-weather.s3.amazonaws.com/asia_wmo_region_2/CHN/CHN_Guangdong.Yangjiang.596630_CSWD/CHN_Guangdong.Yangjiang.596630_CSWD.epw
Zhengcheng,Guangdong,CHN,CSWD,592940,23.33,113.83,8.0,38.9',https://energyplus-weather.s3.amazonaws.com/asia_wmo_region_2/CHN/CHN_Guangdong.Zhengcheng.592940_CSWD/CHN_Guangdong.Zhengcheng.592940_CSWD.epw
Baise,Guangxi Zhuang,CHN,CSWD,592110,23.90,106.60,8.0,173.5',https://energyplus-weather.s3.amazonaws.com/asia_wmo_region_2/CHN/CHN_Guangxi.Zhuang.Baise.592110_CSWD/CHN_Guangxi.Zhuang.Baise.592110_CSWD.epw
Duan,Guangxi Zhuang,CHN,CSWD,590370,23.93,108.10,8.0,170.8',https://energyplus-weather.s3.amazonaws.com/asia_wmo_region_2/CHN/CHN_Guangxi.Zhuang.Duan.590370_CSWD/CHN_Guangxi.Zhuang.Duan.590370_CSWD.epw
Guilin,Guangxi Zhuang,CHN,CSWD,579570,25.32,110.30,8.0,164.4',https://energyplus-weather.s3.amazonaws.com/asia_wmo_region_2/CHN/CHN_Guangxi.Zhuang.Guilin.579570_CSWD/CHN_Guangxi.Zhuang.Guilin.579570_CSWD.epw
Guiping,Guangxi Zhuang,CHN,CSWD,592540,23.40,110.08,8.0,42.5',https://energyplus-weather.s3.amazonaws.com/asia_wmo_region_2/CHN/CHN_Guangxi.Zhuang.Guiping.592540_CSWD/CHN_Guangxi.Zhuang.Guiping.592540_CSWD.epw
Hechi,Guangxi Zhuang,CHN,CSWD,590230,24.70,108.05,8.0,211.0',https://energyplus-weather.s3.amazonaws.com/asia_wmo_region_2/CHN/CHN_Guangxi.Zhuang.Hechi.590230_CSWD/CHN_Guangxi.Zhuang.Hechi.590230_CSWD.epw
Lingshan,Guangxi Zhuang,CHN,CSWD,594460,22.42,109.30,8.0,66.6',https://energyplus-weather.s3.amazonaws.com/asia_wmo_region_2/CHN/CHN_Guangxi.Zhuang.Lingshan.594460_CSWD/CHN_Guangxi.Zhuang.Lingshan.594460_CSWD.epw
Longzhou,Guangxi Zhuang,CHN,CSWD,594170,22.33,106.85,8.0,128.8',https://energyplus-weather.s3.amazonaws.com/asia_wmo_region_2/CHN/CHN_Guangxi.Zhuang.Longzhou.594170_CSWD/CHN_Guangxi.Zhuang.Longzhou.594170_CSWD.epw
Nanning,Guangxi Zhuang,CHN,CSWD,594310,22.63,108.22,8.0,121.6',https://energyplus-weather.s3.amazonaws.com/asia_wmo_region_2/CHN/CHN_Guangxi.Zhuang.Nanning.594310_CSWD/CHN_Guangxi.Zhuang.Nanning.594310_CSWD.epw
Qinzhou,Guangxi Zhuang,CHN,CSWD,596320,21.95,108.62,8.0,4.5',https://energyplus-weather.s3.amazonaws.com/asia_wmo_region_2/CHN/CHN_Guangxi.Zhuang.Qinzhou.596320_CSWD/CHN_Guangxi.Zhuang.Qinzhou.596320_CSWD.epw
Wuzhou,Guangxi Zhuang,CHN,CSWD,592650,23.48,111.30,8.0,114.8',https://energyplus-weather.s3.amazonaws.com/asia_wmo_region_2/CHN/CHN_Guangxi.Zhuang.Wuzhou.592650_CSWD/CHN_Guangxi.Zhuang.Wuzhou.592650_CSWD.epw
Bijie,Guizhou,CHN,CSWD,577070,27.30,105.28,8.0,1510.6',https://energyplus-weather.s3.amazonaws.com/asia_wmo_region_2/CHN/CHN_Guizhou.Bijie.577070_CSWD/CHN_Guizhou.Bijie.577070_CSWD.epw
Guiyang,Guizhou,CHN,CSWD,578160,26.58,106.73,8.0,1223.8',https://energyplus-weather.s3.amazonaws.com/asia_wmo_region_2/CHN/CHN_Guizhou.Guiyang.578160_CSWD/CHN_Guizhou.Guiyang.578160_CSWD.epw
GUIYANG,-,CHN,SWERA,578160,26.58,106.72,8.0,1074.0',https://energyplus-weather.s3.amazonaws.com/asia_wmo_region_2/CHN/CHN_Guizhou.Guiyang.578160_SWERA/CHN_Guizhou.Guiyang.578160_SWERA.epw
Sansui,Guizhou,CHN,CSWD,578320,26.97,108.67,8.0,626.9',https://energyplus-weather.s3.amazonaws.com/asia_wmo_region_2/CHN/CHN_Guizhou.Sansui.578320_CSWD/CHN_Guizhou.Sansui.578320_CSWD.epw
Tongzi,Guizhou,CHN,CSWD,576060,28.13,106.83,8.0,972.0',https://energyplus-weather.s3.amazonaws.com/asia_wmo_region_2/CHN/CHN_Guizhou.Tongzi.576060_CSWD/CHN_Guizhou.Tongzi.576060_CSWD.epw
Weining,Guizhou,CHN,CSWD,566910,26.87,104.28,8.0,2237.5',https://energyplus-weather.s3.amazonaws.com/asia_wmo_region_2/CHN/CHN_Guizhou.Weining.566910_CSWD/CHN_Guizhou.Weining.566910_CSWD.epw
Xingyi,Guizhou,CHN,CSWD,579020,25.43,105.18,8.0,1378.5',https://energyplus-weather.s3.amazonaws.com/asia_wmo_region_2/CHN/CHN_Guizhou.Xingyi.579020_CSWD/CHN_Guizhou.Xingyi.579020_CSWD.epw
Zunyi,Guizhou,CHN,CSWD,577130,27.70,106.88,8.0,843.9',https://energyplus-weather.s3.amazonaws.com/asia_wmo_region_2/CHN/CHN_Guizhou.Zunyi.577130_CSWD/CHN_Guizhou.Zunyi.577130_CSWD.epw
Dongfang,Hainan,CHN,CSWD,598380,19.10,108.62,8.0,8.4',https://energyplus-weather.s3.amazonaws.com/asia_wmo_region_2/CHN/CHN_Hainan.Dongfang.598380_CSWD/CHN_Hainan.Dongfang.598380_CSWD.epw
Haikou,Hainan,CHN,CSWD,597580,20.03,110.35,8.0,13.9',https://energyplus-weather.s3.amazonaws.com/asia_wmo_region_2/CHN/CHN_Hainan.Haikou.597580_CSWD/CHN_Hainan.Haikou.597580_CSWD.epw
Qionghai,Hainan,CHN,CSWD,598550,19.23,110.47,8.0,24.0',https://energyplus-weather.s3.amazonaws.com/asia_wmo_region_2/CHN/CHN_Hainan.Qionghai.598550_CSWD/CHN_Hainan.Qionghai.598550_CSWD.epw
Chengde,Hebei,CHN,CSWD,544230,40.98,117.95,8.0,385.9',https://energyplus-weather.s3.amazonaws.com/asia_wmo_region_2/CHN/CHN_Hebei.Chengde.544230_CSWD/CHN_Hebei.Chengde.544230_CSWD.epw
Fengning,Hebei,CHN,CSWD,543080,41.22,116.63,8.0,661.2',https://energyplus-weather.s3.amazonaws.com/asia_wmo_region_2/CHN/CHN_Hebei.Fengning.543080_CSWD/CHN_Hebei.Fengning.543080_CSWD.epw
Huailai,Hebei,CHN,CSWD,544050,40.40,115.50,8.0,536.0',https://energyplus-weather.s3.amazonaws.com/asia_wmo_region_2/CHN/CHN_Hebei.Huailai.544050_CSWD/CHN_Hebei.Huailai.544050_CSWD.epw
Leting,Hebei,CHN,CSWD,545390,39.43,118.88,8.0,10.0',https://energyplus-weather.s3.amazonaws.com/asia_wmo_region_2/CHN/CHN_Hebei.Leting.545390_CSWD/CHN_Hebei.Leting.545390_CSWD.epw
Raoyang,Hebei,CHN,CSWD,546060,38.23,115.73,8.0,19.0',https://energyplus-weather.s3.amazonaws.com/asia_wmo_region_2/CHN/CHN_Hebei.Raoyang.546060_CSWD/CHN_Hebei.Raoyang.546060_CSWD.epw
Shijiazhuang,Hebei,CHN,CSWD,536980,38.03,114.42,8.0,81.0',https://energyplus-weather.s3.amazonaws.com/asia_wmo_region_2/CHN/CHN_Hebei.Shijiazhuang.536980_CSWD/CHN_Hebei.Shijiazhuang.536980_CSWD.epw
Xingtai,Hebei,CHN,CSWD,537980,37.07,114.50,8.0,77.3',https://energyplus-weather.s3.amazonaws.com/asia_wmo_region_2/CHN/CHN_Hebei.Xingtai.537980_CSWD/CHN_Hebei.Xingtai.537980_CSWD.epw
Zhangbei,Hebei,CHN,CSWD,533990,41.15,114.70,8.0,1393.3',https://energyplus-weather.s3.amazonaws.com/asia_wmo_region_2/CHN/CHN_Hebei.Zhangbei.533990_CSWD/CHN_Hebei.Zhangbei.533990_CSWD.epw
Anda,Heilongjiang,CHN,CSWD,508540,46.38,125.32,8.0,149.3',https://energyplus-weather.s3.amazonaws.com/asia_wmo_region_2/CHN/CHN_Heilongjiang.Anda.508540_CSWD/CHN_Heilongjiang.Anda.508540_CSWD.epw
Fujin,Heilongjiang,CHN,CSWD,507880,47.23,131.98,8.0,66.4',https://energyplus-weather.s3.amazonaws.com/asia_wmo_region_2/CHN/CHN_Heilongjiang.Fujin.507880_CSWD/CHN_Heilongjiang.Fujin.507880_CSWD.epw
Fuyu,Heilongjiang,CHN,CSWD,507420,47.78,124.48,8.0,162.7',https://energyplus-weather.s3.amazonaws.com/asia_wmo_region_2/CHN/CHN_Heilongjiang.Fuyu.507420_CSWD/CHN_Heilongjiang.Fuyu.507420_CSWD.epw
Hailun,Heilongjiang,CHN,CSWD,507560,47.43,126.97,8.0,239.2',https://energyplus-weather.s3.amazonaws.com/asia_wmo_region_2/CHN/CHN_Heilongjiang.Hailun.507560_CSWD/CHN_Heilongjiang.Hailun.507560_CSWD.epw
Harbin,Heilongjiang,CHN,CSWD,509530,45.75,126.77,8.0,142.3',https://energyplus-weather.s3.amazonaws.com/asia_wmo_region_2/CHN/CHN_Heilongjiang.Harbin.509530_CSWD/CHN_Heilongjiang.Harbin.509530_CSWD.epw
HARBIN,-,CHN,IWEC Data,509530,45.72,126.68,8.0,143.0',https://energyplus-weather.s3.amazonaws.com/asia_wmo_region_2/CHN/CHN_Heilongjiang.Harbin.509530_IWEC/CHN_Heilongjiang.Harbin.509530_IWEC.epw
HARBIN,-,CHN,SWERA,509530,45.75,126.77,8.0,143.0',https://energyplus-weather.s3.amazonaws.com/asia_wmo_region_2/CHN/CHN_Heilongjiang.Harbin.509530_SWERA/CHN_Heilongjiang.Harbin.509530_SWERA.epw
Huma,Heilongjiang,CHN,CSWD,503530,51.72,126.65,8.0,177.4',https://energyplus-weather.s3.amazonaws.com/asia_wmo_region_2/CHN/CHN_Heilongjiang.Huma.503530_CSWD/CHN_Heilongjiang.Huma.503530_CSWD.epw
Jiamusi,Heilongjiang,CHN,CSWD,508730,46.82,130.28,8.0,81.2',https://energyplus-weather.s3.amazonaws.com/asia_wmo_region_2/CHN/CHN_Heilongjiang.Jiamusi.508730_CSWD/CHN_Heilongjiang.Jiamusi.508730_CSWD.epw
Jixi,Heilongjiang,CHN,CSWD,509780,45.28,130.95,8.0,238.3',https://energyplus-weather.s3.amazonaws.com/asia_wmo_region_2/CHN/CHN_Heilongjiang.Jixi.509780_CSWD/CHN_Heilongjiang.Jixi.509780_CSWD.epw
Keshan,Heilongjiang,CHN,CSWD,506580,48.05,125.88,8.0,234.6',https://energyplus-weather.s3.amazonaws.com/asia_wmo_region_2/CHN/CHN_Heilongjiang.Keshan.506580_CSWD/CHN_Heilongjiang.Keshan.506580_CSWD.epw
Mohe,Heilongjiang,CHN,CSWD,501360,52.97,122.52,8.0,433.0',https://energyplus-weather.s3.amazonaws.com/asia_wmo_region_2/CHN/CHN_Heilongjiang.Mohe.501360_CSWD/CHN_Heilongjiang.Mohe.501360_CSWD.epw
Mudanjiang,Heilongjiang,CHN,CSWD,540940,44.57,129.60,8.0,241.4',https://energyplus-weather.s3.amazonaws.com/asia_wmo_region_2/CHN/CHN_Heilongjiang.Mudanjiang.540940_CSWD/CHN_Heilongjiang.Mudanjiang.540940_CSWD.epw
Nenjiang,Heilongjiang,CHN,CSWD,505570,49.17,125.23,8.0,242.2',https://energyplus-weather.s3.amazonaws.com/asia_wmo_region_2/CHN/CHN_Heilongjiang.Nenjiang.505570_CSWD/CHN_Heilongjiang.Nenjiang.505570_CSWD.epw
Qiqihar,Heilongjiang,CHN,CSWD,507450,47.38,123.92,8.0,147.1',https://energyplus-weather.s3.amazonaws.com/asia_wmo_region_2/CHN/CHN_Heilongjiang.Qiqihar.507450_CSWD/CHN_Heilongjiang.Qiqihar.507450_CSWD.epw
Shangzhi,Heilongjiang,CHN,CSWD,509680,45.22,127.97,8.0,189.7',https://energyplus-weather.s3.amazonaws.com/asia_wmo_region_2/CHN/CHN_Heilongjiang.Shangzhi.509680_CSWD/CHN_Heilongjiang.Shangzhi.509680_CSWD.epw
Suifenhe,Heilongjiang,CHN,CSWD,540960,44.38,131.17,8.0,567.8',https://energyplus-weather.s3.amazonaws.com/asia_wmo_region_2/CHN/CHN_Heilongjiang.Suifenhe.540960_CSWD/CHN_Heilongjiang.Suifenhe.540960_CSWD.epw
Sunwu,Heilongjiang,CHN,CSWD,505640,49.43,127.35,8.0,234.5',https://energyplus-weather.s3.amazonaws.com/asia_wmo_region_2/CHN/CHN_Heilongjiang.Sunwu.505640_CSWD/CHN_Heilongjiang.Sunwu.505640_CSWD.epw
Tonghe,Heilongjiang,CHN,CSWD,509630,45.97,128.73,8.0,108.6',https://energyplus-weather.s3.amazonaws.com/asia_wmo_region_2/CHN/CHN_Heilongjiang.Tonghe.509630_CSWD/CHN_Heilongjiang.Tonghe.509630_CSWD.epw
Zhaozhou,Heilongjiang,CHN,CSWD,509500,45.70,125.25,8.0,148.7',https://energyplus-weather.s3.amazonaws.com/asia_wmo_region_2/CHN/CHN_Heilongjiang.Zhaozhou.509500_CSWD/CHN_Heilongjiang.Zhaozhou.509500_CSWD.epw
Anyang,Henan,CHN,CSWD,538980,36.05,114.40,8.0,62.9',https://energyplus-weather.s3.amazonaws.com/asia_wmo_region_2/CHN/CHN_Henan.Anyang.538980_CSWD/CHN_Henan.Anyang.538980_CSWD.epw
Lushi,Henan,CHN,CSWD,570670,34.05,111.03,8.0,568.8',https://energyplus-weather.s3.amazonaws.com/asia_wmo_region_2/CHN/CHN_Henan.Lushi.570670_CSWD/CHN_Henan.Lushi.570670_CSWD.epw
Nanyang,Henan,CHN,CSWD,571780,33.03,112.58,8.0,129.2',https://energyplus-weather.s3.amazonaws.com/asia_wmo_region_2/CHN/CHN_Henan.Nanyang.571780_CSWD/CHN_Henan.Nanyang.571780_CSWD.epw
Shangqiu,Henan,CHN,CSWD,580050,34.45,115.67,8.0,50.1',https://energyplus-weather.s3.amazonaws.com/asia_wmo_region_2/CHN/CHN_Henan.Shangqiu.580050_CSWD/CHN_Henan.Shangqiu.580050_CSWD.epw
Xinyang,Henan,CHN,CSWD,572970,32.13,114.05,8.0,114.5',https://energyplus-weather.s3.amazonaws.com/asia_wmo_region_2/CHN/CHN_Henan.Xinyang.572970_CSWD/CHN_Henan.Xinyang.572970_CSWD.epw
Zhengzhou,Henan,CHN,CSWD,570830,34.72,113.65,8.0,110.4',https://energyplus-weather.s3.amazonaws.com/asia_wmo_region_2/CHN/CHN_Henan.Zhengzhou.570830_CSWD/CHN_Henan.Zhengzhou.570830_CSWD.epw
Zhumadian,Henan,CHN,CSWD,572900,33.00,114.02,8.0,82.7',https://energyplus-weather.s3.amazonaws.com/asia_wmo_region_2/CHN/CHN_Henan.Zhumadian.572900_CSWD/CHN_Henan.Zhumadian.572900_CSWD.epw
HONG KONG,SAR,CHN,CityUHK-45007,450070,22.32,114.17,8,65',https://energyplus-weather.s3.amazonaws.com/asia_wmo_region_2/CHN/CHN_Hong.Kong.SAR.450070_CityUHK/CHN_Hong.Kong.SAR.450070_CityUHK.epw
Exi,Hubei,CHN,CSWD,574470,30.28,109.47,8.0,457.1',https://energyplus-weather.s3.amazonaws.com/asia_wmo_region_2/CHN/CHN_Hubei.Exi.574470_CSWD/CHN_Hubei.Exi.574470_CSWD.epw
Laohekou,Hubei,CHN,CSWD,572650,32.38,111.67,8.0,90.0',https://energyplus-weather.s3.amazonaws.com/asia_wmo_region_2/CHN/CHN_Hubei.Laohekou.572650_CSWD/CHN_Hubei.Laohekou.572650_CSWD.epw
Macheng,Hubei,CHN,CSWD,573990,31.18,115.02,8.0,59.3',https://energyplus-weather.s3.amazonaws.com/asia_wmo_region_2/CHN/CHN_Hubei.Macheng.573990_CSWD/CHN_Hubei.Macheng.573990_CSWD.epw
Wuhan,Hubei,CHN,CSWD,574940,30.62,114.13,8.0,23.1',https://energyplus-weather.s3.amazonaws.com/asia_wmo_region_2/CHN/CHN_Hubei.Wuhan.574940_CSWD/CHN_Hubei.Wuhan.574940_CSWD.epw
WUHAN/NANHU,-,CHN,SWERA,574940,30.62,114.13,8.0,23.0',https://energyplus-weather.s3.amazonaws.com/asia_wmo_region_2/CHN/CHN_Hubei.Wuhan.574940_SWERA/CHN_Hubei.Wuhan.574940_SWERA.epw
Yichang,Hubei,CHN,CSWD,574610,30.70,111.30,8.0,133.1',https://energyplus-weather.s3.amazonaws.com/asia_wmo_region_2/CHN/CHN_Hubei.Yichang.574610_CSWD/CHN_Hubei.Yichang.574610_CSWD.epw
Yunxi,Hubei,CHN,CSWD,572510,33.00,110.42,8.0,249.1',https://energyplus-weather.s3.amazonaws.com/asia_wmo_region_2/CHN/CHN_Hubei.Yunxi.572510_CSWD/CHN_Hubei.Yunxi.572510_CSWD.epw
Zhongxiang,Hubei,CHN,CSWD,573780,31.17,112.57,8.0,65.8',https://energyplus-weather.s3.amazonaws.com/asia_wmo_region_2/CHN/CHN_Hubei.Zhongxiang.573780_CSWD/CHN_Hubei.Zhongxiang.573780_CSWD.epw
Changde,Hunan,CHN,CSWD,576620,29.05,111.68,8.0,35.0',https://energyplus-weather.s3.amazonaws.com/asia_wmo_region_2/CHN/CHN_Hunan.Changde.576620_CSWD/CHN_Hunan.Changde.576620_CSWD.epw
Changning,Hunan,CHN,CSWD,578740,26.42,112.40,8.0,116.6',https://energyplus-weather.s3.amazonaws.com/asia_wmo_region_2/CHN/CHN_Hunan.Changning.578740_CSWD/CHN_Hunan.Changning.578740_CSWD.epw
Changsha,Hunan,CHN,CSWD,576870,28.22,112.92,8.0,68.0',https://energyplus-weather.s3.amazonaws.com/asia_wmo_region_2/CHN/CHN_Hunan.Changsha.576870_CSWD/CHN_Hunan.Changsha.576870_CSWD.epw
CHANGSHA,-,CHN,SWERA,576870,28.23,112.87,8.0,68.0',https://energyplus-weather.s3.amazonaws.com/asia_wmo_region_2/CHN/CHN_Hunan.Changsha.576870_SWERA/CHN_Hunan.Changsha.576870_SWERA.epw
Jishou,Hunan,CHN,CSWD,576490,28.32,109.73,8.0,208.4',https://energyplus-weather.s3.amazonaws.com/asia_wmo_region_2/CHN/CHN_Hunan.Jishou.576490_CSWD/CHN_Hunan.Jishou.576490_CSWD.epw
Lingling,Hunan,CHN,CSWD,578660,26.23,111.62,8.0,172.6',https://energyplus-weather.s3.amazonaws.com/asia_wmo_region_2/CHN/CHN_Hunan.Lingling.578660_CSWD/CHN_Hunan.Lingling.578660_CSWD.epw
Nanxian,Hunan,CHN,CSWD,575740,29.37,112.40,8.0,36.0',https://energyplus-weather.s3.amazonaws.com/asia_wmo_region_2/CHN/CHN_Hunan.Nanxian.575740_CSWD/CHN_Hunan.Nanxian.575740_CSWD.epw
Shimen,Hunan,CHN,CSWD,575620,29.58,111.37,8.0,116.9',https://energyplus-weather.s3.amazonaws.com/asia_wmo_region_2/CHN/CHN_Hunan.Shimen.575620_CSWD/CHN_Hunan.Shimen.575620_CSWD.epw
Wugang,Hunan,CHN,CSWD,578530,26.73,110.63,8.0,341.0',https://energyplus-weather.s3.amazonaws.com/asia_wmo_region_2/CHN/CHN_Hunan.Wugang.578530_CSWD/CHN_Hunan.Wugang.578530_CSWD.epw
Zhijiang,Hunan,CHN,CSWD,577450,27.45,109.68,8.0,272.2',https://energyplus-weather.s3.amazonaws.com/asia_wmo_region_2/CHN/CHN_Hunan.Zhijiang.577450_CSWD/CHN_Hunan.Zhijiang.577450_CSWD.epw
Zhuzhou,Hunan,CHN,CSWD,577800,27.87,113.17,8.0,74.6',https://energyplus-weather.s3.amazonaws.com/asia_wmo_region_2/CHN/CHN_Hunan.Zhuzhou.577800_CSWD/CHN_Hunan.Zhuzhou.577800_CSWD.epw
Dongtai,Jiangsu,CHN,CSWD,582510,32.87,120.32,8.0,4.3',https://energyplus-weather.s3.amazonaws.com/asia_wmo_region_2/CHN/CHN_Jiangsu.Dongtai.582510_CSWD/CHN_Jiangsu.Dongtai.582510_CSWD.epw
Ganyu,Jiangsu,CHN,CSWD,580400,34.83,119.12,8.0,3.3',https://energyplus-weather.s3.amazonaws.com/asia_wmo_region_2/CHN/CHN_Jiangsu.Ganyu.580400_CSWD/CHN_Jiangsu.Ganyu.580400_CSWD.epw
Huaiyang-Qingjiang,Jiangsu,CHN,CSWD,581440,33.63,119.02,8.0,14.4',https://energyplus-weather.s3.amazonaws.com/asia_wmo_region_2/CHN/CHN_Jiangsu.Huaiyang-Qingjiang.581440_CSWD/CHN_Jiangsu.Huaiyang-Qingjiang.581440_CSWD.epw
Lusi,Jiangsu,CHN,CSWD,582650,32.07,121.60,8.0,5.5',https://energyplus-weather.s3.amazonaws.com/asia_wmo_region_2/CHN/CHN_Jiangsu.Lusi.582650_CSWD/CHN_Jiangsu.Lusi.582650_CSWD.epw
Nanjing,Jiangsu,CHN,CSWD,582380,32.83,118.80,8.0,7.1',https://energyplus-weather.s3.amazonaws.com/asia_wmo_region_2/CHN/CHN_Jiangsu.Nanjing.582380_CSWD/CHN_Jiangsu.Nanjing.582380_CSWD.epw
Xuzhou,Jiangsu,CHN,CSWD,580270,34.28,117.15,8.0,41.2',https://energyplus-weather.s3.amazonaws.com/asia_wmo_region_2/CHN/CHN_Jiangsu.Xuzhou.580270_CSWD/CHN_Jiangsu.Xuzhou.580270_CSWD.epw
Ganzhou,Jiangxi,CHN,CSWD,579930,25.87,115.00,8.0,137.5',https://energyplus-weather.s3.amazonaws.com/asia_wmo_region_2/CHN/CHN_Jiangxi.Ganzhou.579930_CSWD/CHN_Jiangxi.Ganzhou.579930_CSWD.epw
Jian,Jiangxi,CHN,CSWD,577990,27.05,114.92,8.0,71.2',https://energyplus-weather.s3.amazonaws.com/asia_wmo_region_2/CHN/CHN_Jiangxi.Jian.577990_CSWD/CHN_Jiangxi.Jian.577990_CSWD.epw
Jingdezhen,Jiangxi,CHN,CSWD,585270,29.30,117.20,8.0,61.5',https://energyplus-weather.s3.amazonaws.com/asia_wmo_region_2/CHN/CHN_Jiangxi.Jingdezhen.585270_CSWD/CHN_Jiangxi.Jingdezhen.585270_CSWD.epw
Nanchang,Jiangxi,CHN,CSWD,586060,28.60,115.92,8.0,46.9',https://energyplus-weather.s3.amazonaws.com/asia_wmo_region_2/CHN/CHN_Jiangxi.Nanchang.586060_CSWD/CHN_Jiangxi.Nanchang.586060_CSWD.epw
Nancheng,Jiangxi,CHN,CSWD,587150,27.58,116.65,8.0,80.8',https://energyplus-weather.s3.amazonaws.com/asia_wmo_region_2/CHN/CHN_Jiangxi.Nancheng.587150_CSWD/CHN_Jiangxi.Nancheng.587150_CSWD.epw
NANCHENG,-,CHN,SWERA,587150,27.58,116.65,8.0,82.0',https://energyplus-weather.s3.amazonaws.com/asia_wmo_region_2/CHN/CHN_Jiangxi.Nancheng.587150_SWERA/CHN_Jiangxi.Nancheng.587150_SWERA.epw
NANJING/NANKING,-,CHN,SWERA,582380,32.00,118.80,8.0,12.0',https://energyplus-weather.s3.amazonaws.com/asia_wmo_region_2/CHN/CHN_Jiangxi.Nanjing.582380_SWERA/CHN_Jiangxi.Nanjing.582380_SWERA.epw
Suichuan,Jiangxi,CHN,CSWD,578960,26.33,114.50,8.0,126.1',https://energyplus-weather.s3.amazonaws.com/asia_wmo_region_2/CHN/CHN_Jiangxi.Suichuan.578960_CSWD/CHN_Jiangxi.Suichuan.578960_CSWD.epw
Yichun,Jiangxi,CHN,CSWD,577930,27.80,114.38,8.0,131.3',https://energyplus-weather.s3.amazonaws.com/asia_wmo_region_2/CHN/CHN_Jiangxi.Yichun.577930_CSWD/CHN_Jiangxi.Yichun.577930_CSWD.epw
Yushan,Jiangxi,CHN,CSWD,586340,28.68,118.33,8.0,116.3',https://energyplus-weather.s3.amazonaws.com/asia_wmo_region_2/CHN/CHN_Jiangxi.Yushan.586340_CSWD/CHN_Jiangxi.Yushan.586340_CSWD.epw
Baicheng,Jilin,CHN,CSWD,509360,45.63,122.83,8.0,155.3',https://energyplus-weather.s3.amazonaws.com/asia_wmo_region_2/CHN/CHN_Jilin.Baicheng.509360_CSWD/CHN_Jilin.Baicheng.509360_CSWD.epw
Changchun,Jilin,CHN,CSWD,541610,43.90,125.22,8.0,236.8',https://energyplus-weather.s3.amazonaws.com/asia_wmo_region_2/CHN/CHN_Jilin.Changchun.541610_CSWD/CHN_Jilin.Changchun.541610_CSWD.epw
Donggang,Jilin,CHN,CSWD,542840,42.10,127.57,8.0,774.2',https://energyplus-weather.s3.amazonaws.com/asia_wmo_region_2/CHN/CHN_Jilin.Donggang.542840_CSWD/CHN_Jilin.Donggang.542840_CSWD.epw
Dunhua,Jilin,CHN,CSWD,541860,43.37,128.20,8.0,524.9',https://energyplus-weather.s3.amazonaws.com/asia_wmo_region_2/CHN/CHN_Jilin.Dunhua.541860_CSWD/CHN_Jilin.Dunhua.541860_CSWD.epw
Linjiang,Jilin,CHN,CSWD,543740,41.00,126.92,8.0,332.7',https://energyplus-weather.s3.amazonaws.com/asia_wmo_region_2/CHN/CHN_Jilin.Linjiang.543740_CSWD/CHN_Jilin.Linjiang.543740_CSWD.epw
Qian Gorlos,Jilin,CHN,CSWD,509490,45.08,124.87,8.0,136.2',https://energyplus-weather.s3.amazonaws.com/asia_wmo_region_2/CHN/CHN_Jilin.Qian.Gorlos.509490_CSWD/CHN_Jilin.Qian.Gorlos.509490_CSWD.epw
Siping,Jilin,CHN,CSWD,541570,43.17,124.33,8.0,165.7',https://energyplus-weather.s3.amazonaws.com/asia_wmo_region_2/CHN/CHN_Jilin.Siping.541570_CSWD/CHN_Jilin.Siping.541570_CSWD.epw
Yanji,Jilin,CHN,CSWD,542920,42.88,129.47,8.0,176.8',https://energyplus-weather.s3.amazonaws.com/asia_wmo_region_2/CHN/CHN_Jilin.Yanji.542920_CSWD/CHN_Jilin.Yanji.542920_CSWD.epw
KASHI,-,CHN,SWERA,517090,39.47,75.98,8.0,1291.0',https://energyplus-weather.s3.amazonaws.com/asia_wmo_region_2/CHN/CHN_Kinjiang.Uygar.Kashi.517090_SWERA/CHN_Kinjiang.Uygar.Kashi.517090_SWERA.epw
KUQA,-,CHN,SWERA,516440,41.72,82.95,8.0,1100.0',https://energyplus-weather.s3.amazonaws.com/asia_wmo_region_2/CHN/CHN_Kinjiang.Uygur.Kuqa.516440_SWERA/CHN_Kinjiang.Uygur.Kuqa.516440_SWERA.epw
YINING,-,CHN,SWERA,514310,43.95,81.33,8.0,663.0',https://energyplus-weather.s3.amazonaws.com/asia_wmo_region_2/CHN/CHN_Kinjiang.Uygur.Yining.514310_SWERA/CHN_Kinjiang.Uygur.Yining.514310_SWERA.epw
HOTAN,-,CHN,SWERA,518280,37.13,79.93,8.0,1375.0',https://energyplus-weather.s3.amazonaws.com/asia_wmo_region_2/CHN/CHN_Kinjiang.Uyhur.Hotan.518280_SWERA/CHN_Kinjiang.Uyhur.Hotan.518280_SWERA.epw
Benxi,Liaoning,CHN,CSWD,543460,41.32,123.78,8.0,185.4',https://energyplus-weather.s3.amazonaws.com/asia_wmo_region_2/CHN/CHN_Liaoning.Benxi.543460_CSWD/CHN_Liaoning.Benxi.543460_CSWD.epw
Chaoyang,Liaoning,CHN,CSWD,543240,41.55,120.45,8.0,169.9',https://energyplus-weather.s3.amazonaws.com/asia_wmo_region_2/CHN/CHN_Liaoning.Chaoyang.543240_CSWD/CHN_Liaoning.Chaoyang.543240_CSWD.epw
Dalian,Liaoning,CHN,CSWD,546620,38.90,121.63,8.0,91.5',https://energyplus-weather.s3.amazonaws.com/asia_wmo_region_2/CHN/CHN_Liaoning.Dalian.546620_CSWD/CHN_Liaoning.Dalian.546620_CSWD.epw
DALIAN/DAIREN/LUDA,-,CHN,SWERA,546620,38.90,121.63,8.0,97.0',https://energyplus-weather.s3.amazonaws.com/asia_wmo_region_2/CHN/CHN_Liaoning.Dalian.546620_SWERA/CHN_Liaoning.Dalian.546620_SWERA.epw
Dandong,Liaoning,CHN,CSWD,544970,40.05,124.33,8.0,13.8',https://energyplus-weather.s3.amazonaws.com/asia_wmo_region_2/CHN/CHN_Liaoning.Dandong.544970_CSWD/CHN_Liaoning.Dandong.544970_CSWD.epw
Jinzhou,Liaoning,CHN,CSWD,543370,41.68,121.12,8.0,65.9',https://energyplus-weather.s3.amazonaws.com/asia_wmo_region_2/CHN/CHN_Liaoning.Jinzhou.543370_CSWD/CHN_Liaoning.Jinzhou.543370_CSWD.epw
Kuandian,Liaoning,CHN,CSWD,544930,40.72,124.78,8.0,260.1',https://energyplus-weather.s3.amazonaws.com/asia_wmo_region_2/CHN/CHN_Liaoning.Kuandian.544930_CSWD/CHN_Liaoning.Kuandian.544930_CSWD.epw
Shenyang,Liaoning,CHN,CSWD,543420,41.73,123.45,8.0,44.7',https://energyplus-weather.s3.amazonaws.com/asia_wmo_region_2/CHN/CHN_Liaoning.Shenyang.543420_CSWD/CHN_Liaoning.Shenyang.543420_CSWD.epw
SHENYANG,-,CHN,IWEC Data,543420,41.78,123.48,8.0,43.0',https://energyplus-weather.s3.amazonaws.com/asia_wmo_region_2/CHN/CHN_Liaoning.Shenyang.543420_IWEC/CHN_Liaoning.Shenyang.543420_IWEC.epw
Xingcheng,Liaoning,CHN,CSWD,544550,40.58,120.70,8.0,10.5',https://energyplus-weather.s3.amazonaws.com/asia_wmo_region_2/CHN/CHN_Liaoning.Xingcheng.544550_CSWD/CHN_Liaoning.Xingcheng.544550_CSWD.epw
Xinmin,Liaoning,CHN,CSWD,543330,41.98,122.83,8.0,30.7',https://energyplus-weather.s3.amazonaws.com/asia_wmo_region_2/CHN/CHN_Liaoning.Xinmin.543330_CSWD/CHN_Liaoning.Xinmin.543330_CSWD.epw
Yingkou,Liaoning,CHN,CSWD,544710,40.67,122.27,8.0,3.3',https://energyplus-weather.s3.amazonaws.com/asia_wmo_region_2/CHN/CHN_Liaoning.Yingkou.544710_CSWD/CHN_Liaoning.Yingkou.544710_CSWD.epw
Zhangwu,Liaoning,CHN,CSWD,542360,42.42,122.53,8.0,79.4',https://energyplus-weather.s3.amazonaws.com/asia_wmo_region_2/CHN/CHN_Liaoning.Zhangwu.542360_CSWD/CHN_Liaoning.Zhangwu.542360_CSWD.epw
Abag Qi Hot,Nei Mongol,CHN,CSWD,531920,44.02,114.95,8.0,1126.1',https://energyplus-weather.s3.amazonaws.com/asia_wmo_region_2/CHN/CHN_Nei.Mongol.Abag.Qi.Hot.531920_CSWD/CHN_Nei.Mongol.Abag.Qi.Hot.531920_CSWD.epw
Arxan,Nei Mongol,CHN,CSWD,507270,47.17,119.93,8.0,997.2',https://energyplus-weather.s3.amazonaws.com/asia_wmo_region_2/CHN/CHN_Nei.Mongol.Arxan.507270_CSWD/CHN_Nei.Mongol.Arxan.507270_CSWD.epw
Bailingmiao,Nei Mongol,CHN,CSWD,533520,41.70,110.43,8.0,1376.6',https://energyplus-weather.s3.amazonaws.com/asia_wmo_region_2/CHN/CHN_Nei.Mongol.Bailingmiao.533520_CSWD/CHN_Nei.Mongol.Bailingmiao.533520_CSWD.epw
BAILING-MIAO,-,CHN,SWERA,533520,41.70,110.43,8.0,1377.0',https://energyplus-weather.s3.amazonaws.com/asia_wmo_region_2/CHN/CHN_Nei.Mongol.Bailingmiao.533520_SWERA/CHN_Nei.Mongol.Bailingmiao.533520_SWERA.epw
Bairin Zuo Qi,Nei Mongol,CHN,CSWD,540270,43.98,119.40,8.0,486.2',https://energyplus-weather.s3.amazonaws.com/asia_wmo_region_2/CHN/CHN_Nei.Mongol.Bairin.Zuo.Qi.540270_CSWD/CHN_Nei.Mongol.Bairin.Zuo.Qi.540270_CSWD.epw
Bayan Mod,Nei Mongol,CHN,CSWD,524950,40.17,104.80,8.0,1323.0',https://energyplus-weather.s3.amazonaws.com/asia_wmo_region_2/CHN/CHN_Nei.Mongol.Bayan.Mod.524950_CSWD/CHN_Nei.Mongol.Bayan.Mod.524950_CSWD.epw
Bugt,Nei Mongol,CHN,CSWD,506320,48.77,121.92,8.0,739.7',https://energyplus-weather.s3.amazonaws.com/asia_wmo_region_2/CHN/CHN_Nei.Mongol.Bugt.506320_CSWD/CHN_Nei.Mongol.Bugt.506320_CSWD.epw
BUGT,-,CHN,SWERA,506320,48.77,121.92,8.0,739.0',https://energyplus-weather.s3.amazonaws.com/asia_wmo_region_2/CHN/CHN_Nei.Mongol.Bugt.506320_SWERA/CHN_Nei.Mongol.Bugt.506320_SWERA.epw
Chifeng,Nei Mongol,CHN,CSWD,542180,42.27,118.93,8.0,568.0',https://energyplus-weather.s3.amazonaws.com/asia_wmo_region_2/CHN/CHN_Nei.Mongol.Chifeng.542180_CSWD/CHN_Nei.Mongol.Chifeng.542180_CSWD.epw
Dong Ujimqin Qi,Nei Mongol,CHN,CSWD,509150,45.52,116.97,8.0,838.9',https://energyplus-weather.s3.amazonaws.com/asia_wmo_region_2/CHN/CHN_Nei.Mongol.Dong.Ujimqin.Qi.509150_CSWD/CHN_Nei.Mongol.Dong.Ujimqin.Qi.509150_CSWD.epw
Dongsheng,Nei Mongol,CHN,CSWD,535430,39.83,109.98,8.0,1461.9',https://energyplus-weather.s3.amazonaws.com/asia_wmo_region_2/CHN/CHN_Nei.Mongol.Dongsheng.535430_CSWD/CHN_Nei.Mongol.Dongsheng.535430_CSWD.epw
Duolun,Nei Mongol,CHN,CSWD,542080,42.18,116.47,8.0,1245.4',https://energyplus-weather.s3.amazonaws.com/asia_wmo_region_2/CHN/CHN_Nei.Mongol.Duolun.542080_CSWD/CHN_Nei.Mongol.Duolun.542080_CSWD.epw
Ejin Qi,Nei Mongol,CHN,CSWD,522670,41.95,101.07,8.0,940.5',https://energyplus-weather.s3.amazonaws.com/asia_wmo_region_2/CHN/CHN_Nei.Mongol.Ejin.Qi.522670_CSWD/CHN_Nei.Mongol.Ejin.Qi.522670_CSWD.epw
EJIN_QI,-,CHN,SWERA,522670,41.95,101.07,8.0,941.0',https://energyplus-weather.s3.amazonaws.com/asia_wmo_region_2/CHN/CHN_Nei.Mongol.Ejin.Qi.522670_SWERA/CHN_Nei.Mongol.Ejin.Qi.522670_SWERA.epw
Erenhot,Nei Mongol,CHN,CSWD,530680,43.65,111.97,8.0,964.7',https://energyplus-weather.s3.amazonaws.com/asia_wmo_region_2/CHN/CHN_Nei.Mongol.Erenhot.530680_CSWD/CHN_Nei.Mongol.Erenhot.530680_CSWD.epw
Hailar,Nei Mongol,CHN,CSWD,505270,49.22,119.75,8.0,610.2',https://energyplus-weather.s3.amazonaws.com/asia_wmo_region_2/CHN/CHN_Nei.Mongol.Hailar.505270_CSWD/CHN_Nei.Mongol.Hailar.505270_CSWD.epw
Hailisu,Nei Mongol,CHN,CSWD,532310,41.40,106.40,8.0,1509.6',https://energyplus-weather.s3.amazonaws.com/asia_wmo_region_2/CHN/CHN_Nei.Mongol.Hailisu.532310_CSWD/CHN_Nei.Mongol.Hailisu.532310_CSWD.epw
Haliut,Nei Mongol,CHN,CSWD,533360,41.57,108.52,8.0,1288.0',https://energyplus-weather.s3.amazonaws.com/asia_wmo_region_2/CHN/CHN_Nei.Mongol.Haliut.533360_CSWD/CHN_Nei.Mongol.Haliut.533360_CSWD.epw
Hohhot,Nei Mongol,CHN,CSWD,534630,40.82,111.68,8.0,1063.0',https://energyplus-weather.s3.amazonaws.com/asia_wmo_region_2/CHN/CHN_Nei.Mongol.Hohhot.534630_CSWD/CHN_Nei.Mongol.Hohhot.534630_CSWD.epw
Huade,Nei Mongol,CHN,CSWD,533910,41.90,114.00,8.0,1482.7',https://energyplus-weather.s3.amazonaws.com/asia_wmo_region_2/CHN/CHN_Nei.Mongol.Huade.533910_CSWD/CHN_Nei.Mongol.Huade.533910_CSWD.epw
HUADE,-,CHN,SWERA,533910,41.90,114.00,8.0,1484.0',https://energyplus-weather.s3.amazonaws.com/asia_wmo_region_2/CHN/CHN_Nei.Mongol.Huade.533910_SWERA/CHN_Nei.Mongol.Huade.533910_SWERA.epw
Jartai,Nei Mongol,CHN,CSWD,535020,39.78,105.75,8.0,1031.8',https://energyplus-weather.s3.amazonaws.com/asia_wmo_region_2/CHN/CHN_Nei.Mongol.Jartai.535020_CSWD/CHN_Nei.Mongol.Jartai.535020_CSWD.epw
JARTAI,-,CHN,SWERA,535020,39.78,105.75,8.0,1033.0',https://energyplus-weather.s3.amazonaws.com/asia_wmo_region_2/CHN/CHN_Nei.Mongol.Jartai.535020_SWERA/CHN_Nei.Mongol.Jartai.535020_SWERA.epw
Jarud Qi,Nei Mongol,CHN,CSWD,540260,44.57,120.90,8.0,265.0',https://energyplus-weather.s3.amazonaws.com/asia_wmo_region_2/CHN/CHN_Nei.Mongol.Jarud.Qi.540260_CSWD/CHN_Nei.Mongol.Jarud.Qi.540260_CSWD.epw
Jurh,Nei Mongol,CHN,CSWD,532760,42.40,112.90,8.0,1150.8',https://energyplus-weather.s3.amazonaws.com/asia_wmo_region_2/CHN/CHN_Nei.Mongol.Jurh.532760_CSWD/CHN_Nei.Mongol.Jurh.532760_CSWD.epw
Kailu,Nei Mongol,CHN,CSWD,541340,43.60,121.28,8.0,241.0',https://energyplus-weather.s3.amazonaws.com/asia_wmo_region_2/CHN/CHN_Nei.Mongol.Kailu.541340_CSWD/CHN_Nei.Mongol.Kailu.541340_CSWD.epw
Linxi,Nei Mongol,CHN,CSWD,541150,43.60,118.07,8.0,799.5',https://energyplus-weather.s3.amazonaws.com/asia_wmo_region_2/CHN/CHN_Nei.Mongol.Linxi.541150_CSWD/CHN_Nei.Mongol.Linxi.541150_CSWD.epw
LINXI,-,CHN,SWERA,541150,43.60,118.07,8.0,800.0',https://energyplus-weather.s3.amazonaws.com/asia_wmo_region_2/CHN/CHN_Nei.Mongol.Linxi.541150_SWERA/CHN_Nei.Mongol.Linxi.541150_SWERA.epw
Manzhouli,Nei Mongol,CHN,CSWD,505140,49.57,117.43,8.0,661.7',https://energyplus-weather.s3.amazonaws.com/asia_wmo_region_2/CHN/CHN_Nei.Mongol.Manzhouli.505140_CSWD/CHN_Nei.Mongol.Manzhouli.505140_CSWD.epw
Otog Qi,Nei Mongol,CHN,CSWD,535290,39.10,107.98,8.0,1380.3',https://energyplus-weather.s3.amazonaws.com/asia_wmo_region_2/CHN/CHN_Nei.Mongol.Otog.Qi.535290_CSWD/CHN_Nei.Mongol.Otog.Qi.535290_CSWD.epw
Solon,Nei Mongol,CHN,CSWD,508340,46.60,121.22,8.0,499.7',https://energyplus-weather.s3.amazonaws.com/asia_wmo_region_2/CHN/CHN_Nei.Mongol.Solon.508340_CSWD/CHN_Nei.Mongol.Solon.508340_CSWD.epw
Tongliao,Nei Mongol,CHN,CSWD,541350,43.60,122.27,8.0,178.7',https://energyplus-weather.s3.amazonaws.com/asia_wmo_region_2/CHN/CHN_Nei.Mongol.Tongliao.541350_CSWD/CHN_Nei.Mongol.Tongliao.541350_CSWD.epw
TONGLIAO,-,CHN,SWERA,541350,43.60,122.27,8.0,180.0',https://energyplus-weather.s3.amazonaws.com/asia_wmo_region_2/CHN/CHN_Nei.Mongol.Tongliao.541350_SWERA/CHN_Nei.Mongol.Tongliao.541350_SWERA.epw
Tulihe,Nei Mongol,CHN,CSWD,504340,50.48,121.68,8.0,732.6',https://energyplus-weather.s3.amazonaws.com/asia_wmo_region_2/CHN/CHN_Nei.Mongol.Tulihe.504340_CSWD/CHN_Nei.Mongol.Tulihe.504340_CSWD.epw
Xi Ujimqin Qi,Nei Mongol,CHN,CSWD,540120,44.58,117.60,8.0,995.9',https://energyplus-weather.s3.amazonaws.com/asia_wmo_region_2/CHN/CHN_Nei.Mongol.Xi.Ujimqin.Qi.540120_CSWD/CHN_Nei.Mongol.Xi.Ujimqin.Qi.540120_CSWD.epw
Xilinhot,Nei Mongol,CHN,CSWD,541020,43.95,116.12,8.0,1003.0',https://energyplus-weather.s3.amazonaws.com/asia_wmo_region_2/CHN/CHN_Nei.Mongol.Xilinhot.541020_CSWD/CHN_Nei.Mongol.Xilinhot.541020_CSWD.epw
Guyuan,Ningxia Hui,CHN,CSWD,538170,36.00,106.27,8.0,1753.0',https://energyplus-weather.s3.amazonaws.com/asia_wmo_region_2/CHN/CHN_Ningxia.Hui.Guyuan.538170_CSWD/CHN_Ningxia.Hui.Guyuan.538170_CSWD.epw
Yanchi,Ningxia Hui,CHN,CSWD,537230,37.80,107.38,8.0,1349.3',https://energyplus-weather.s3.amazonaws.com/asia_wmo_region_2/CHN/CHN_Ningxia.Hui.Yanchi.537230_CSWD/CHN_Ningxia.Hui.Yanchi.537230_CSWD.epw
Yinchuan,Ningxia Hui,CHN,CSWD,536140,38.48,106.22,8.0,1111.4',https://energyplus-weather.s3.amazonaws.com/asia_wmo_region_2/CHN/CHN_Ningxia.Hui.Yinchuan.536140_CSWD/CHN_Ningxia.Hui.Yinchuan.536140_CSWD.epw
Daqaidam,Qinghai,CHN,CSWD,527130,37.85,95.37,8.0,3173.2',https://energyplus-weather.s3.amazonaws.com/asia_wmo_region_2/CHN/CHN_Qinghai.Daqaidam.527130_CSWD/CHN_Qinghai.Daqaidam.527130_CSWD.epw
Darlag,Qinghai,CHN,CSWD,560460,33.75,99.65,8.0,3967.5',https://energyplus-weather.s3.amazonaws.com/asia_wmo_region_2/CHN/CHN_Qinghai.Darlag.560460_CSWD/CHN_Qinghai.Darlag.560460_CSWD.epw
Dulan Us,Qinghai,CHN,CSWD,528360,36.30,98.10,8.0,3191.1',https://energyplus-weather.s3.amazonaws.com/asia_wmo_region_2/CHN/CHN_Qinghai.Dulan.Us.528360_CSWD/CHN_Qinghai.Dulan.Us.528360_CSWD.epw
Gangca,Qinghai,CHN,CSWD,527540,37.33,100.13,8.0,3301.5',https://energyplus-weather.s3.amazonaws.com/asia_wmo_region_2/CHN/CHN_Qinghai.Gangca.527540_CSWD/CHN_Qinghai.Gangca.527540_CSWD.epw
Golmud,Qinghai,CHN,CSWD,528180,36.42,94.90,8.0,2807.6',https://energyplus-weather.s3.amazonaws.com/asia_wmo_region_2/CHN/CHN_Qinghai.Golmud.528180_CSWD/CHN_Qinghai.Golmud.528180_CSWD.epw
DELINGHA,-,CHN,SWERA,527370,37.37,97.37,8.0,2982.0',https://energyplus-weather.s3.amazonaws.com/asia_wmo_region_2/CHN/CHN_Qinghai.Haixi.Delingha.527370_SWERA/CHN_Qinghai.Haixi.Delingha.527370_SWERA.epw
Lenghu,Qinghai,CHN,CSWD,526020,38.75,93.33,8.0,2770.0',https://energyplus-weather.s3.amazonaws.com/asia_wmo_region_2/CHN/CHN_Qinghai.Lenghu.526020_CSWD/CHN_Qinghai.Lenghu.526020_CSWD.epw
Madoi,Qinghai,CHN,CSWD,560330,34.92,98.22,8.0,4272.3',https://energyplus-weather.s3.amazonaws.com/asia_wmo_region_2/CHN/CHN_Qinghai.Madoi.560330_CSWD/CHN_Qinghai.Madoi.560330_CSWD.epw
MADOI/HUANGHEYAN,-,CHN,SWERA,560330,34.92,98.22,8.0,4273.0',https://energyplus-weather.s3.amazonaws.com/asia_wmo_region_2/CHN/CHN_Qinghai.Madoi.560330_SWERA/CHN_Qinghai.Madoi.560330_SWERA.epw
MANGNAI,-,CHN,SWERA,518860,38.25,90.85,8.0,2945.0',https://energyplus-weather.s3.amazonaws.com/asia_wmo_region_2/CHN/CHN_Qinghai.Mangnai.518860_SWERA/CHN_Qinghai.Mangnai.518860_SWERA.epw
Minhe,Qinghai,CHN,CSWD,528760,36.32,102.85,8.0,1813.9',https://energyplus-weather.s3.amazonaws.com/asia_wmo_region_2/CHN/CHN_Qinghai.Minhe.528760_CSWD/CHN_Qinghai.Minhe.528760_CSWD.epw
Nangqen,Qinghai,CHN,CSWD,561250,32.20,96.48,8.0,3643.7',https://energyplus-weather.s3.amazonaws.com/asia_wmo_region_2/CHN/CHN_Qinghai.Nangqen.561250_CSWD/CHN_Qinghai.Nangqen.561250_CSWD.epw
Qumarleb,Qinghai,CHN,CSWD,560210,34.13,95.78,8.0,4175.0',https://energyplus-weather.s3.amazonaws.com/asia_wmo_region_2/CHN/CHN_Qinghai.Qumarleb.560210_CSWD/CHN_Qinghai.Qumarleb.560210_CSWD.epw
Tuotuohe,Qinghai,CHN,CSWD,560040,34.22,92.43,8.0,4533.1',https://energyplus-weather.s3.amazonaws.com/asia_wmo_region_2/CHN/CHN_Qinghai.Tuotuohe.560040_CSWD/CHN_Qinghai.Tuotuohe.560040_CSWD.epw
TUOTUOHE/TANGGULASH,-,CHN,SWERA,560040,34.22,92.43,8.0,4535.0',https://energyplus-weather.s3.amazonaws.com/asia_wmo_region_2/CHN/CHN_Qinghai.Tuotuohe.560040_SWERA/CHN_Qinghai.Tuotuohe.560040_SWERA.epw
Xinghai,Qinghai,CHN,CSWD,529430,35.58,99.98,8.0,3323.2',https://energyplus-weather.s3.amazonaws.com/asia_wmo_region_2/CHN/CHN_Qinghai.Xinghai.529430_CSWD/CHN_Qinghai.Xinghai.529430_CSWD.epw
Xining,Qinghai,CHN,CSWD,528660,36.72,101.75,8.0,2295.2',https://energyplus-weather.s3.amazonaws.com/asia_wmo_region_2/CHN/CHN_Qinghai.Xining.528660_CSWD/CHN_Qinghai.Xining.528660_CSWD.epw
Yushu,Qinghai,CHN,CSWD,560290,33.02,97.02,8.0,3681.2',https://energyplus-weather.s3.amazonaws.com/asia_wmo_region_2/CHN/CHN_Qinghai.Yushu.560290_CSWD/CHN_Qinghai.Yushu.560290_CSWD.epw
ANKANG/XING'AN,-,CHN,SWERA,572450,32.72,109.03,8.0,291.0",https://energyplus-weather.s3.amazonaws.com/asia_wmo_region_2/CHN/CHN_Shaanxi.Ankang.572450_SWERA/CHN_Shaanxi.Ankang.572450_SWERA.epw
Ankangan,Shaanxi,CHN,CSWD,572450,32.72,109.03,8.0,290.8',https://energyplus-weather.s3.amazonaws.com/asia_wmo_region_2/CHN/CHN_Shaanxi.Ankangan.572450_CSWD/CHN_Shaanxi.Ankangan.572450_CSWD.epw
BAOJI,-,CHN,SWERA,570160,34.35,107.13,8.0,610.0',https://energyplus-weather.s3.amazonaws.com/asia_wmo_region_2/CHN/CHN_Shaanxi.Baoji.570160_SWERA/CHN_Shaanxi.Baoji.570160_SWERA.epw
Dingbian,Shaanxi,CHN,CSWD,537250,37.58,107.58,8.0,1360.3',https://energyplus-weather.s3.amazonaws.com/asia_wmo_region_2/CHN/CHN_Shaanxi.Dingbian.537250_CSWD/CHN_Shaanxi.Dingbian.537250_CSWD.epw
Hanzhong,Shaanxi,CHN,CSWD,571270,33.07,107.03,8.0,509.5',https://energyplus-weather.s3.amazonaws.com/asia_wmo_region_2/CHN/CHN_Shaanxi.Hanzhong.571270_CSWD/CHN_Shaanxi.Hanzhong.571270_CSWD.epw
Luochuan,Shaanxi,CHN,CSWD,539420,35.82,109.50,8.0,1159.8',https://energyplus-weather.s3.amazonaws.com/asia_wmo_region_2/CHN/CHN_Shaanxi.Luochuan.539420_CSWD/CHN_Shaanxi.Luochuan.539420_CSWD.epw
Suide,Shaanxi,CHN,CSWD,537540,37.50,110.22,8.0,929.7',https://energyplus-weather.s3.amazonaws.com/asia_wmo_region_2/CHN/CHN_Shaanxi.Suide.537540_CSWD/CHN_Shaanxi.Suide.537540_CSWD.epw
Xian,Shaanxi,CHN,CSWD,570360,34.30,108.93,8.0,397.5',https://energyplus-weather.s3.amazonaws.com/asia_wmo_region_2/CHN/CHN_Shaanxi.Xian.570360_CSWD/CHN_Shaanxi.Xian.570360_CSWD.epw
Yanan,Shaanxi,CHN,CSWD,538450,36.60,109.50,8.0,958.5',https://energyplus-weather.s3.amazonaws.com/asia_wmo_region_2/CHN/CHN_Shaanxi.Yanan.538450_CSWD/CHN_Shaanxi.Yanan.538450_CSWD.epw
Yulin,Shaanxi,CHN,CSWD,536460,38.23,109.70,8.0,1057.5',https://energyplus-weather.s3.amazonaws.com/asia_wmo_region_2/CHN/CHN_Shaanxi.Yulin.536460_CSWD/CHN_Shaanxi.Yulin.536460_CSWD.epw
YULIN,-,CHN,SWERA,536460,38.23,109.70,8.0,1058.0',https://energyplus-weather.s3.amazonaws.com/asia_wmo_region_2/CHN/CHN_Shaanxi.Yulin.536460_SWERA/CHN_Shaanxi.Yulin.536460_SWERA.epw
Chaoyang,Shandong,CHN,CSWD,548080,36.23,115.67,8.0,37.8',https://energyplus-weather.s3.amazonaws.com/asia_wmo_region_2/CHN/CHN_Shandong.Chaoyang.548080_CSWD/CHN_Shandong.Chaoyang.548080_CSWD.epw
Chengshantou,Shandong,CHN,CSWD,547760,37.40,122.68,8.0,47.7',https://energyplus-weather.s3.amazonaws.com/asia_wmo_region_2/CHN/CHN_Shandong.Chengshantou.547760_CSWD/CHN_Shandong.Chengshantou.547760_CSWD.epw
Huimin Xian,Shandong,CHN,CSWD,547250,37.48,117.53,8.0,11.7',https://energyplus-weather.s3.amazonaws.com/asia_wmo_region_2/CHN/CHN_Shandong.Huimin.Xian.547250_CSWD/CHN_Shandong.Huimin.Xian.547250_CSWD.epw
Jinan,Shandong,CHN,CSWD,548230,36.60,117.05,8.0,170.3',https://energyplus-weather.s3.amazonaws.com/asia_wmo_region_2/CHN/CHN_Shandong.Jinan.548230_CSWD/CHN_Shandong.Jinan.548230_CSWD.epw
Juxian,Shandong,CHN,CSWD,549360,35.58,118.83,8.0,107.4',https://energyplus-weather.s3.amazonaws.com/asia_wmo_region_2/CHN/CHN_Shandong.Juxian.549360_CSWD/CHN_Shandong.Juxian.549360_CSWD.epw
Longkou,Shandong,CHN,CSWD,547530,37.62,120.32,8.0,4.8',https://energyplus-weather.s3.amazonaws.com/asia_wmo_region_2/CHN/CHN_Shandong.Longkou.547530_CSWD/CHN_Shandong.Longkou.547530_CSWD.epw
Weifang,Shandong,CHN,CSWD,548430,36.75,119.18,8.0,22.2',https://energyplus-weather.s3.amazonaws.com/asia_wmo_region_2/CHN/CHN_Shandong.Weifang.548430_CSWD/CHN_Shandong.Weifang.548430_CSWD.epw
Yanzhou,Shandong,CHN,CSWD,549160,35.57,116.85,8.0,51.7',https://energyplus-weather.s3.amazonaws.com/asia_wmo_region_2/CHN/CHN_Shandong.Yanzhou.549160_CSWD/CHN_Shandong.Yanzhou.549160_CSWD.epw
Shanghai,Shanghai,CHN,CSWD,583620,31.40,121.45,8.0,5.5',https://energyplus-weather.s3.amazonaws.com/asia_wmo_region_2/CHN/CHN_Shanghai.Shanghai.583620_CSWD/CHN_Shanghai.Shanghai.583620_CSWD.epw
SHANGHAI/HONGQIAO,-,CHN,SWERA,583620,31.17,121.43,8.0,7.0',https://energyplus-weather.s3.amazonaws.com/asia_wmo_region_2/CHN/CHN_Shanghai.Shanghai.583620_SWERA/CHN_Shanghai.Shanghai.583620_SWERA.epw
SHANGHAI,-,CHN,IWEC Data,583670,31.17,121.43,8.0,7.0',https://energyplus-weather.s3.amazonaws.com/asia_wmo_region_2/CHN/CHN_Shanghai.Shanghai.583670_IWEC/CHN_Shanghai.Shanghai.583670_IWEC.epw
Datong,Shanxi,CHN,CSWD,534870,40.10,113.33,8.0,1067.2',https://energyplus-weather.s3.amazonaws.com/asia_wmo_region_2/CHN/CHN_Shanxi.Datong.534870_CSWD/CHN_Shanxi.Datong.534870_CSWD.epw
Houma,Shanxi,CHN,CSWD,539630,35.65,111.37,8.0,433.0',https://energyplus-weather.s3.amazonaws.com/asia_wmo_region_2/CHN/CHN_Shanxi.Houma.539630_CSWD/CHN_Shanxi.Houma.539630_CSWD.epw
Jiexiu,Shanxi,CHN,CSWD,538630,37.03,111.92,8.0,743.9',https://energyplus-weather.s3.amazonaws.com/asia_wmo_region_2/CHN/CHN_Shanxi.Jiexiu.538630_CSWD/CHN_Shanxi.Jiexiu.538630_CSWD.epw
Taiyuan,Shanxi,CHN,CSWD,537720,37.78,112.55,8.0,778.3',https://energyplus-weather.s3.amazonaws.com/asia_wmo_region_2/CHN/CHN_Shanxi.Taiyuan.537720_CSWD/CHN_Shanxi.Taiyuan.537720_CSWD.epw
Yuanping,Shanxi,CHN,CSWD,536730,38.73,112.72,8.0,828.2',https://energyplus-weather.s3.amazonaws.com/asia_wmo_region_2/CHN/CHN_Shanxi.Yuanping.536730_CSWD/CHN_Shanxi.Yuanping.536730_CSWD.epw
Yuncheng,Shanxi,CHN,CSWD,539590,35.05,111.05,8.0,365.0',https://energyplus-weather.s3.amazonaws.com/asia_wmo_region_2/CHN/CHN_Shanxi.Yuncheng.539590_CSWD/CHN_Shanxi.Yuncheng.539590_CSWD.epw
Yushe,Shanxi,CHN,CSWD,537870,37.07,112.98,8.0,1041.4',https://energyplus-weather.s3.amazonaws.com/asia_wmo_region_2/CHN/CHN_Shanxi.Yushe.537870_CSWD/CHN_Shanxi.Yushe.537870_CSWD.epw
Barkam,Sichuan,CHN,CSWD,561720,31.90,102.23,8.0,2664.4',https://energyplus-weather.s3.amazonaws.com/asia_wmo_region_2/CHN/CHN_Sichuan.Barkam.561720_CSWD/CHN_Sichuan.Barkam.561720_CSWD.epw
BATANG,-,CHN,SWERA,562470,30.00,99.10,8.0,2589.0',https://energyplus-weather.s3.amazonaws.com/asia_wmo_region_2/CHN/CHN_Sichuan.Batang.562470_SWERA/CHN_Sichuan.Batang.562470_SWERA.epw
Chengdu,Sichuan,CHN,CSWD,562940,30.67,104.02,8.0,506.1',https://energyplus-weather.s3.amazonaws.com/asia_wmo_region_2/CHN/CHN_Sichuan.Chengdu.562940_CSWD/CHN_Sichuan.Chengdu.562940_CSWD.epw
CHENGDU,-,CHN,SWERA,562940,30.67,104.02,8.0,508.0',https://energyplus-weather.s3.amazonaws.com/asia_wmo_region_2/CHN/CHN_Sichuan.Chengdu.562940_SWERA/CHN_Sichuan.Chengdu.562940_SWERA.epw
Garze,Sichuan,CHN,CSWD,561460,31.62,100.00,8.0,3393.5',https://energyplus-weather.s3.amazonaws.com/asia_wmo_region_2/CHN/CHN_Sichuan.Garze.561460_CSWD/CHN_Sichuan.Garze.561460_CSWD.epw
Garze,-,CHN,SWERA,561460,31.62,100.00,8.0,3394.0',https://energyplus-weather.s3.amazonaws.com/asia_wmo_region_2/CHN/CHN_Sichuan.Garze.561460_SWERA/CHN_Sichuan.Garze.561460_SWERA.epw
Hongyuan,Sichuan,CHN,CSWD,561730,32.80,102.55,8.0,3491.6',https://energyplus-weather.s3.amazonaws.com/asia_wmo_region_2/CHN/CHN_Sichuan.Hongyuan.561730_CSWD/CHN_Sichuan.Hongyuan.561730_CSWD.epw
Huili,Sichuan,CHN,CSWD,566710,26.65,102.25,8.0,1787.3',https://energyplus-weather.s3.amazonaws.com/asia_wmo_region_2/CHN/CHN_Sichuan.Huili.566710_CSWD/CHN_Sichuan.Huili.566710_CSWD.epw
HUILI,-,CHN,SWERA,566710,26.65,102.25,8.0,1788.0',https://energyplus-weather.s3.amazonaws.com/asia_wmo_region_2/CHN/CHN_Sichuan.Huili.566710_SWERA/CHN_Sichuan.Huili.566710_SWERA.epw
Jiulong,Sichuan,CHN,CSWD,564620,29.00,101.50,8.0,2987.3',https://energyplus-weather.s3.amazonaws.com/asia_wmo_region_2/CHN/CHN_Sichuan.Jiulong.564620_CSWD/CHN_Sichuan.Jiulong.564620_CSWD.epw
Leshan,Sichuan,CHN,CSWD,563860,29.57,103.75,8.0,424.2',https://energyplus-weather.s3.amazonaws.com/asia_wmo_region_2/CHN/CHN_Sichuan.Leshan.563860_CSWD/CHN_Sichuan.Leshan.563860_CSWD.epw
Litang,Sichuan,CHN,CSWD,562570,30.00,100.27,8.0,3948.9',https://energyplus-weather.s3.amazonaws.com/asia_wmo_region_2/CHN/CHN_Sichuan.Litang.562570_CSWD/CHN_Sichuan.Litang.562570_CSWD.epw
Luzhou,Sichuan,CHN,CSWD,576020,28.88,105.43,8.0,334.8',https://energyplus-weather.s3.amazonaws.com/asia_wmo_region_2/CHN/CHN_Sichuan.Luzhou.576020_CSWD/CHN_Sichuan.Luzhou.576020_CSWD.epw
Mianyang,Sichuan,CHN,CSWD,561960,31.45,104.73,8.0,522.7',https://energyplus-weather.s3.amazonaws.com/asia_wmo_region_2/CHN/CHN_Sichuan.Mianyang.561960_CSWD/CHN_Sichuan.Mianyang.561960_CSWD.epw
Nanchong,Sichuan,CHN,CSWD,574110,30.78,106.10,8.0,309.7',https://energyplus-weather.s3.amazonaws.com/asia_wmo_region_2/CHN/CHN_Sichuan.Nanchong.574110_CSWD/CHN_Sichuan.Nanchong.574110_CSWD.epw
Songpan,Sichuan,CHN,CSWD,561820,32.65,103.57,8.0,2850.7',https://energyplus-weather.s3.amazonaws.com/asia_wmo_region_2/CHN/CHN_Sichuan.Songpan.561820_CSWD/CHN_Sichuan.Songpan.561820_CSWD.epw
Wanyuan,Sichuan,CHN,CSWD,572370,32.07,108.03,8.0,674.0',https://energyplus-weather.s3.amazonaws.com/asia_wmo_region_2/CHN/CHN_Sichuan.Wanyuan.572370_CSWD/CHN_Sichuan.Wanyuan.572370_CSWD.epw
Xichang,Sichuan,CHN,CSWD,565710,27.90,102.27,8.0,1590.9',https://energyplus-weather.s3.amazonaws.com/asia_wmo_region_2/CHN/CHN_Sichuan.Xichang.565710_CSWD/CHN_Sichuan.Xichang.565710_CSWD.epw
Yibin,Sichuan,CHN,CSWD,564920,28.80,104.60,8.0,340.8',https://energyplus-weather.s3.amazonaws.com/asia_wmo_region_2/CHN/CHN_Sichuan.Yibin.564920_CSWD/CHN_Sichuan.Yibin.564920_CSWD.epw
Tianjin,Tianjin,CHN,CSWD,545270,39.08,117.07,8.0,2.5',https://energyplus-weather.s3.amazonaws.com/asia_wmo_region_2/CHN/CHN_Tianjin.Tianjin.545270_CSWD/CHN_Tianjin.Tianjin.545270_CSWD.epw
Lhasa,Tibet,CHN,CSWD,555910,29.67,91.13,8.0,3648.9',https://energyplus-weather.s3.amazonaws.com/asia_wmo_region_2/CHN/CHN_Tibet.Lhasa.555910_CSWD/CHN_Tibet.Lhasa.555910_CSWD.epw
LHASA,-,CHN,SWERA,555910,29.67,91.13,8.0,3650.0',https://energyplus-weather.s3.amazonaws.com/asia_wmo_region_2/CHN/CHN_Tibet.Lhasa.555910_SWERA/CHN_Tibet.Lhasa.555910_SWERA.epw
Nyingchi,Tibet,CHN,CSWD,563120,29.67,94.33,8.0,2991.8',https://energyplus-weather.s3.amazonaws.com/asia_wmo_region_2/CHN/CHN_Tibet.Nyingchi.563120_CSWD/CHN_Tibet.Nyingchi.563120_CSWD.epw
NYINGCHI,-,CHN,SWERA,563120,29.57,94.47,8.0,3001.0',https://energyplus-weather.s3.amazonaws.com/asia_wmo_region_2/CHN/CHN_Tibet.Nyingchi.563120_SWERA/CHN_Tibet.Nyingchi.563120_SWERA.epw
PAGRI,-,CHN,SWERA,557730,27.73,89.08,8.0,4301.0',https://energyplus-weather.s3.amazonaws.com/asia_wmo_region_2/CHN/CHN_Tibet.Pagri.557730_SWERA/CHN_Tibet.Pagri.557730_SWERA.epw
Qamdo,Tibet,CHN,CSWD,561370,31.15,97.17,8.0,3306.0',https://energyplus-weather.s3.amazonaws.com/asia_wmo_region_2/CHN/CHN_Tibet.Qamdo.561370_CSWD/CHN_Tibet.Qamdo.561370_CSWD.epw
URUMQI,-,CHN,IWEC Data,514630,43.83,87.53,8.0,786.0',https://energyplus-weather.s3.amazonaws.com/asia_wmo_region_2/CHN/CHN_Xinjiang.Urgur.Urumqi.514630_IWEC/CHN_Xinjiang.Urgur.Urumqi.514630_IWEC.epw
Aksu,Xinjiang Uygur,CHN,CSWD,516280,41.17,80.23,8.0,1103.8',https://energyplus-weather.s3.amazonaws.com/asia_wmo_region_2/CHN/CHN_Xinjiang.Uygur.Aksu.516280_CSWD/CHN_Xinjiang.Uygur.Aksu.516280_CSWD.epw
Altay,Xinjiang Uygur,CHN,CSWD,510760,47.73,88.08,8.0,735.3',https://energyplus-weather.s3.amazonaws.com/asia_wmo_region_2/CHN/CHN_Xinjiang.Uygur.Altay.510760_CSWD/CHN_Xinjiang.Uygur.Altay.510760_CSWD.epw
ALTAY,-,CHN,SWERA,510760,47.73,88.08,8.0,737.0',https://energyplus-weather.s3.amazonaws.com/asia_wmo_region_2/CHN/CHN_Xinjiang.Uygur.Altay.510760_SWERA/CHN_Xinjiang.Uygur.Altay.510760_SWERA.epw
Bachu,Xinjiang Uygur,CHN,CSWD,517160,39.80,78.57,8.0,1116.5',https://energyplus-weather.s3.amazonaws.com/asia_wmo_region_2/CHN/CHN_Xinjiang.Uygur.Bachu.517160_CSWD/CHN_Xinjiang.Uygur.Bachu.517160_CSWD.epw
Fuyun,Xinjiang Uygur,CHN,CSWD,510870,46.98,89.52,8.0,807.5',https://energyplus-weather.s3.amazonaws.com/asia_wmo_region_2/CHN/CHN_Xinjiang.Uygur.Fuyun.510870_CSWD/CHN_Xinjiang.Uygur.Fuyun.510870_CSWD.epw
Hami,Xinjiang Uygur,CHN,CSWD,522030,42.82,93.52,8.0,737.2',https://energyplus-weather.s3.amazonaws.com/asia_wmo_region_2/CHN/CHN_Xinjiang.Uygur.Hami.522030_CSWD/CHN_Xinjiang.Uygur.Hami.522030_CSWD.epw
Hoboksar,Xinjiang Uygur,CHN,CSWD,511560,46.78,85.72,8.0,1291.6',https://energyplus-weather.s3.amazonaws.com/asia_wmo_region_2/CHN/CHN_Xinjiang.Uygur.Hoboksar.511560_CSWD/CHN_Xinjiang.Uygur.Hoboksar.511560_CSWD.epw
Hotan,Xinjiang Uygur,CHN,CSWD,518280,37.13,79.93,8.0,1375.0',https://energyplus-weather.s3.amazonaws.com/asia_wmo_region_2/CHN/CHN_Xinjiang.Uygur.Hotan.518280_CSWD/CHN_Xinjiang.Uygur.Hotan.518280_CSWD.epw
Jinghe,Xinjiang Uygur,CHN,CSWD,513340,44.62,82.90,8.0,320.1',https://energyplus-weather.s3.amazonaws.com/asia_wmo_region_2/CHN/CHN_Xinjiang.Uygur.Jinghe.513340_CSWD/CHN_Xinjiang.Uygur.Jinghe.513340_CSWD.epw
Karamay,Xinjiang Uygur,CHN,CSWD,512430,45.62,84.85,8.0,449.5',https://energyplus-weather.s3.amazonaws.com/asia_wmo_region_2/CHN/CHN_Xinjiang.Uygur.Karamay.512430_CSWD/CHN_Xinjiang.Uygur.Karamay.512430_CSWD.epw
Kashi,Xinjiang Uygur,CHN,CSWD,517090,39.47,75.98,8.0,1289.4',https://energyplus-weather.s3.amazonaws.com/asia_wmo_region_2/CHN/CHN_Xinjiang.Uygur.Kashi.517090_CSWD/CHN_Xinjiang.Uygur.Kashi.517090_CSWD.epw
Kuqa,Xinjiang Uygur,CHN,CSWD,516440,41.72,83.07,8.0,1081.9',https://energyplus-weather.s3.amazonaws.com/asia_wmo_region_2/CHN/CHN_Xinjiang.Uygur.Kuqa.516440_CSWD/CHN_Xinjiang.Uygur.Kuqa.516440_CSWD.epw
Minfeng,Xinjiang Uygur,CHN,CSWD,518390,37.07,82.72,8.0,1409.5',https://energyplus-weather.s3.amazonaws.com/asia_wmo_region_2/CHN/CHN_Xinjiang.Uygur.Minfeng.518390_CSWD/CHN_Xinjiang.Uygur.Minfeng.518390_CSWD.epw
Ruoqiang,Xinjiang Uygur,CHN,CSWD,517770,39.03,88.17,8.0,887.7',https://energyplus-weather.s3.amazonaws.com/asia_wmo_region_2/CHN/CHN_Xinjiang.Uygur.Ruoqiang.517770_CSWD/CHN_Xinjiang.Uygur.Ruoqiang.517770_CSWD.epw
Shache,Xinjiang Uygur,CHN,CSWD,518110,38.43,77.27,8.0,1231.2',https://energyplus-weather.s3.amazonaws.com/asia_wmo_region_2/CHN/CHN_Xinjiang.Uygur.Shache.518110_CSWD/CHN_Xinjiang.Uygur.Shache.518110_CSWD.epw
Tacheng,Xinjiang Uygur,CHN,CSWD,511330,46.73,83.00,8.0,534.9',https://energyplus-weather.s3.amazonaws.com/asia_wmo_region_2/CHN/CHN_Xinjiang.Uygur.Tacheng.511330_CSWD/CHN_Xinjiang.Uygur.Tacheng.511330_CSWD.epw
Tikanlik,Xinjiang Uygur,CHN,CSWD,517650,40.63,87.70,8.0,846.0',https://energyplus-weather.s3.amazonaws.com/asia_wmo_region_2/CHN/CHN_Xinjiang.Uygur.Tikanlik.517650_CSWD/CHN_Xinjiang.Uygur.Tikanlik.517650_CSWD.epw
Turpan,Xinjiang Uygur,CHN,CSWD,515730,42.93,89.20,8.0,34.5',https://energyplus-weather.s3.amazonaws.com/asia_wmo_region_2/CHN/CHN_Xinjiang.Uygur.Turpan.515730_CSWD/CHN_Xinjiang.Uygur.Turpan.515730_CSWD.epw
TURPAN,-,CHN,SWERA,515730,42.93,89.20,8.0,37.0',https://energyplus-weather.s3.amazonaws.com/asia_wmo_region_2/CHN/CHN_Xinjiang.Uygur.Turpan.515730_SWERA/CHN_Xinjiang.Uygur.Turpan.515730_SWERA.epw
Urumqi,Xinjiang Uygur,CHN,CSWD,514630,43.78,87.65,8.0,935.0',https://energyplus-weather.s3.amazonaws.com/asia_wmo_region_2/CHN/CHN_Xinjiang.Uygur.Urumqi.514630_CSWD/CHN_Xinjiang.Uygur.Urumqi.514630_CSWD.epw
Wusu,Xinjiang Uygur,CHN,CSWD,513460,44.43,84.67,8.0,478.7',https://energyplus-weather.s3.amazonaws.com/asia_wmo_region_2/CHN/CHN_Xinjiang.Uygur.Wusu.513460_CSWD/CHN_Xinjiang.Uygur.Wusu.513460_CSWD.epw
Yanqi,Xinjiang Uygur,CHN,CSWD,515670,42.08,86.50,8.0,1055.3',https://energyplus-weather.s3.amazonaws.com/asia_wmo_region_2/CHN/CHN_Xinjiang.Uygur.Yanqi.515670_CSWD/CHN_Xinjiang.Uygur.Yanqi.515670_CSWD.epw
Yining,Xinjiang Uygur,CHN,CSWD,514310,43.95,81.33,8.0,662.5',https://energyplus-weather.s3.amazonaws.com/asia_wmo_region_2/CHN/CHN_Xinjiang.Uygur.Yining.514310_CSWD/CHN_Xinjiang.Uygur.Yining.514310_CSWD.epw
Chuxiong,Yunnan,CHN,CSWD,567680,25.03,101.55,8.0,1824.1',https://energyplus-weather.s3.amazonaws.com/asia_wmo_region_2/CHN/CHN_Yunnan.Chuxiong.567680_CSWD/CHN_Yunnan.Chuxiong.567680_CSWD.epw
Deqen,Yunnan,CHN,CSWD,564440,28.48,98.92,8.0,3319.0',https://energyplus-weather.s3.amazonaws.com/asia_wmo_region_2/CHN/CHN_Yunnan.Deqen.564440_CSWD/CHN_Yunnan.Deqen.564440_CSWD.epw
Kunming,Yunnan,CHN,CSWD,567780,25.02,102.68,8.0,1892.4',https://energyplus-weather.s3.amazonaws.com/asia_wmo_region_2/CHN/CHN_Yunnan.Kunming.567780_CSWD/CHN_Yunnan.Kunming.567780_CSWD.epw
KUNMING,-,CHN,IWEC Data,567780,25.02,102.68,8.0,1892.0',https://energyplus-weather.s3.amazonaws.com/asia_wmo_region_2/CHN/CHN_Yunnan.Kunming.567780_IWEC/CHN_Yunnan.Kunming.567780_IWEC.epw
KUNMING/WUJIABA,-,CHN,SWERA,567780,25.02,102.68,8.0,1892.0',https://energyplus-weather.s3.amazonaws.com/asia_wmo_region_2/CHN/CHN_Yunnan.Kunming.567780_SWERA/CHN_Yunnan.Kunming.567780_SWERA.epw
Lancang,Yunnan,CHN,CSWD,569540,22.57,99.93,8.0,1054.8',https://energyplus-weather.s3.amazonaws.com/asia_wmo_region_2/CHN/CHN_Yunnan.Lancang.569540_CSWD/CHN_Yunnan.Lancang.569540_CSWD.epw
Lijiang,Yunnan,CHN,CSWD,566510,26.87,100.22,8.0,2392.4',https://energyplus-weather.s3.amazonaws.com/asia_wmo_region_2/CHN/CHN_Yunnan.Lijiang.566510_CSWD/CHN_Yunnan.Lijiang.566510_CSWD.epw
Lincang,Yunnan,CHN,CSWD,569510,23.88,100.08,8.0,1502.4',https://energyplus-weather.s3.amazonaws.com/asia_wmo_region_2/CHN/CHN_Yunnan.Lincang.569510_CSWD/CHN_Yunnan.Lincang.569510_CSWD.epw
Mengla,Yunnan,CHN,CSWD,569690,21.48,101.57,8.0,631.9',https://energyplus-weather.s3.amazonaws.com/asia_wmo_region_2/CHN/CHN_Yunnan.Mengla.569690_CSWD/CHN_Yunnan.Mengla.569690_CSWD.epw
Mengzi,Yunnan,CHN,CSWD,569850,23.38,103.38,8.0,1300.7',https://energyplus-weather.s3.amazonaws.com/asia_wmo_region_2/CHN/CHN_Yunnan.Mengzi.569850_CSWD/CHN_Yunnan.Mengzi.569850_CSWD.epw
Simao,Yunnan,CHN,CSWD,569640,22.78,100.97,8.0,1302.1',https://energyplus-weather.s3.amazonaws.com/asia_wmo_region_2/CHN/CHN_Yunnan.Simao.569640_CSWD/CHN_Yunnan.Simao.569640_CSWD.epw
Tengchong,Yunnan,CHN,CSWD,567390,25.02,98.50,8.0,1654.6',https://energyplus-weather.s3.amazonaws.com/asia_wmo_region_2/CHN/CHN_Yunnan.Tengchong.567390_CSWD/CHN_Yunnan.Tengchong.567390_CSWD.epw
Yuanjiang,Yunnan,CHN,CSWD,569660,23.60,101.98,8.0,400.9',https://energyplus-weather.s3.amazonaws.com/asia_wmo_region_2/CHN/CHN_Yunnan.Yuanjiang.569660_CSWD/CHN_Yunnan.Yuanjiang.569660_CSWD.epw
Dinghai,Zhejiang,CHN,CSWD,584770,30.03,122.10,8.0,35.7',https://energyplus-weather.s3.amazonaws.com/asia_wmo_region_2/CHN/CHN_Zhejiang.Dinghai.584770_CSWD/CHN_Zhejiang.Dinghai.584770_CSWD.epw
Hangzhou,Zhejiang,CHN,CSWD,584570,30.23,120.17,8.0,41.7',https://energyplus-weather.s3.amazonaws.com/asia_wmo_region_2/CHN/CHN_Zhejiang.Hangzhou.584570_CSWD/CHN_Zhejiang.Hangzhou.584570_CSWD.epw
HANGZHOU/JIANQIAO,-,CHN,SWERA,584570,30.23,120.17,8.0,43.0',https://energyplus-weather.s3.amazonaws.com/asia_wmo_region_2/CHN/CHN_Zhejiang.Hangzhou.584570_SWERA/CHN_Zhejiang.Hangzhou.584570_SWERA.epw
Hongjia,Zhejiang,CHN,CSWD,586650,28.62,121.42,8.0,4.6',https://energyplus-weather.s3.amazonaws.com/asia_wmo_region_2/CHN/CHN_Zhejiang.Hongjia.586650_CSWD/CHN_Zhejiang.Hongjia.586650_CSWD.epw
Quxian,Zhejiang,CHN,CSWD,586330,29.00,118.90,8.0,82.4',https://energyplus-weather.s3.amazonaws.com/asia_wmo_region_2/CHN/CHN_Zhejiang.Quxian.586330_CSWD/CHN_Zhejiang.Quxian.586330_CSWD.epw
Wenzhou,Zhejiang,CHN,CSWD,586590,28.03,120.65,8.0,28.3',https://energyplus-weather.s3.amazonaws.com/asia_wmo_region_2/CHN/CHN_Zhejiang.Wenzhou.586590_CSWD/CHN_Zhejiang.Wenzhou.586590_CSWD.epw
Anqing,Anhui,CHN,CSWD,584240,30.53,117.05,8.0,19.8',https://energyplus-weather.s3.amazonaws.com/asia_wmo_region_2/CHN/CHN_Anhui.Anqing.584240_CSWD/CHN_Anhui.Anqing.584240_CSWD.epw
Bengbu,Anhui,CHN,CSWD,582210,32.95,117.38,8.0,18.7',https://energyplus-weather.s3.amazonaws.com/asia_wmo_region_2/CHN/CHN_Anhui.Bengbu.582210_CSWD/CHN_Anhui.Bengbu.582210_CSWD.epw
Boxian,Anhui,CHN,CSWD,581020,33.87,115.77,8.0,37.7',https://energyplus-weather.s3.amazonaws.com/asia_wmo_region_2/CHN/CHN_Anhui.Boxian.581020_CSWD/CHN_Anhui.Boxian.581020_CSWD.epw
Dongcheng,Anhui,CHN,CSWD,583190,31.07,116.95,8.0,85.4',https://energyplus-weather.s3.amazonaws.com/asia_wmo_region_2/CHN/CHN_Anhui.Dongcheng.583190_CSWD/CHN_Anhui.Dongcheng.583190_CSWD.epw
Hefei,Anhui,CHN,CSWD,583210,31.87,117.23,8.0,26.8',https://energyplus-weather.s3.amazonaws.com/asia_wmo_region_2/CHN/CHN_Anhui.Hefei.583210_CSWD/CHN_Anhui.Hefei.583210_CSWD.epw
HEFEI/LUOGANG,-,CHN,SWERA,583210,31.87,117.23,8.0,36.0',https://energyplus-weather.s3.amazonaws.com/asia_wmo_region_2/CHN/CHN_Anhui.Hefei.583210_SWERA/CHN_Anhui.Hefei.583210_SWERA.epw
Huoshan,Anhui,CHN,CSWD,583140,31.40,116.32,8.0,68.1',https://energyplus-weather.s3.amazonaws.com/asia_wmo_region_2/CHN/CHN_Anhui.Huoshan.583140_CSWD/CHN_Anhui.Huoshan.583140_CSWD.epw
Shouxian,Anhui,CHN,CSWD,582150,32.55,116.78,8.0,22.7',https://energyplus-weather.s3.amazonaws.com/asia_wmo_region_2/CHN/CHN_Anhui.Shouxian.582150_CSWD/CHN_Anhui.Shouxian.582150_CSWD.epw
Tunxi,Anhui,CHN,CSWD,585310,29.72,118.28,8.0,142.7',https://energyplus-weather.s3.amazonaws.com/asia_wmo_region_2/CHN/CHN_Anhui.Tunxi.585310_CSWD/CHN_Anhui.Tunxi.585310_CSWD.epw
Beijing,Beijing,CHN,CSWD,545110,39.80,116.47,8.0,31.3',https://energyplus-weather.s3.amazonaws.com/asia_wmo_region_2/CHN/CHN_Beijing.Beijing.545110_CSWD/CHN_Beijing.Beijing.545110_CSWD.epw
BEIJING,-,CHN,IWEC Data,545110,39.80,116.47,8.0,32.0',https://energyplus-weather.s3.amazonaws.com/asia_wmo_region_2/CHN/CHN_Beijing.Beijing.545110_IWEC/CHN_Beijing.Beijing.545110_IWEC.epw
BEIJING/PEKING,-,CHN,SWERA,545110,39.93,116.28,8.0,55.0',https://energyplus-weather.s3.amazonaws.com/asia_wmo_region_2/CHN/CHN_Beijing.Beijing.545110_SWERA/CHN_Beijing.Beijing.545110_SWERA.epw
Miyun,Beijing,CHN,CSWD,544160,40.38,116.87,8.0,71.8',https://energyplus-weather.s3.amazonaws.com/asia_wmo_region_2/CHN/CHN_Beijing.Miyun.544160_CSWD/CHN_Beijing.Miyun.544160_CSWD.epw
Chongqing Shapingba,Chongqing,CHN,CSWD,575160,29.58,106.47,8.0,259.1',https://energyplus-weather.s3.amazonaws.com/asia_wmo_region_2/CHN/CHN_Chongqing.Chongqing.Shapingba.575160_CSWD/CHN_Chongqing.Chongqing.Shapingba.575160_CSWD.epw
CHONGQING/CHUNGKING,-,CHN,SWERA,575160,29.52,106.48,8.0,351.0',https://energyplus-weather.s3.amazonaws.com/asia_wmo_region_2/CHN/CHN_Chongqing.Chongqing.Shapingba.575160_SWERA/CHN_Chongqing.Chongqing.Shapingba.575160_SWERA.epw
Youyang,Chongqing,CHN,CSWD,576330,28.83,108.77,8.0,664.1',https://energyplus-weather.s3.amazonaws.com/asia_wmo_region_2/CHN/CHN_Chongqing.Youyang.576330_CSWD/CHN_Chongqing.Youyang.576330_CSWD.epw
Congwu,Fujian,CHN,CSWD,591330,24.90,118.92,8.0,21.8',https://energyplus-weather.s3.amazonaws.com/asia_wmo_region_2/CHN/CHN_Fujian.Congwu.591330_CSWD/CHN_Fujian.Congwu.591330_CSWD.epw
Fuzhou,Fujian,CHN,CSWD,588470,26.08,119.28,8.0,4.0',https://energyplus-weather.s3.amazonaws.com/asia_wmo_region_2/CHN/CHN_Fujian.Fuzhou.588470_CSWD/CHN_Fujian.Fuzhou.588470_CSWD.epw
Jianou,Fujian,CHN,CSWD,587370,27.05,118.32,8.0,154.9',https://energyplus-weather.s3.amazonaws.com/asia_wmo_region_2/CHN/CHN_Fujian.Jianou.587370_CSWD/CHN_Fujian.Jianou.587370_CSWD.epw
Nanping,Fujian,CHN,CSWD,588340,26.65,118.17,8.0,125.1',https://energyplus-weather.s3.amazonaws.com/asia_wmo_region_2/CHN/CHN_Fujian.Nanping.588340_CSWD/CHN_Fujian.Nanping.588340_CSWD.epw
Shanghang,Fujian,CHN,CSWD,589180,25.05,116.42,8.0,198.0',https://energyplus-weather.s3.amazonaws.com/asia_wmo_region_2/CHN/CHN_Fujian.Shanghang.589180_CSWD/CHN_Fujian.Shanghang.589180_CSWD.epw
Xiamen,Fujian,CHN,CSWD,591340,24.48,118.07,8.0,139.4',https://energyplus-weather.s3.amazonaws.com/asia_wmo_region_2/CHN/CHN_Fujian.Xiamen.591340_CSWD/CHN_Fujian.Xiamen.591340_CSWD.epw
Yongan,Fujian,CHN,CSWD,589210,25.97,117.35,8.0,206.0',https://energyplus-weather.s3.amazonaws.com/asia_wmo_region_2/CHN/CHN_Fujian.Yongan.589210_CSWD/CHN_Fujian.Yongan.589210_CSWD.epw
Dunhuang,Gansu,CHN,CSWD,524180,40.15,94.68,8.0,1139.0',https://energyplus-weather.s3.amazonaws.com/asia_wmo_region_2/CHN/CHN_Gansu.Dunhuang.524180_CSWD/CHN_Gansu.Dunhuang.524180_CSWD.epw
Hezuo,Gansu,CHN,CSWD,560800,35.00,102.90,8.0,2910.0',https://energyplus-weather.s3.amazonaws.com/asia_wmo_region_2/CHN/CHN_Gansu.Hezuo.560800_CSWD/CHN_Gansu.Hezuo.560800_CSWD.epw
Jiuquan,Gansu,CHN,CSWD,525330,39.77,98.48,8.0,1477.2',https://energyplus-weather.s3.amazonaws.com/asia_wmo_region_2/CHN/CHN_Gansu.Jiuquan.525330_CSWD/CHN_Gansu.Jiuquan.525330_CSWD.epw
Lanzhou,Gansu,CHN,CSWD,528890,36.05,103.88,8.0,1517.2',https://energyplus-weather.s3.amazonaws.com/asia_wmo_region_2/CHN/CHN_Gansu.Lanzhou.528890_CSWD/CHN_Gansu.Lanzhou.528890_CSWD.epw
LANZHOU,-,CHN,IWEC Data,528890,36.05,103.88,8.0,1518.0',https://energyplus-weather.s3.amazonaws.com/asia_wmo_region_2/CHN/CHN_Gansu.Lanzhou.528890_IWEC/CHN_Gansu.Lanzhou.528890_IWEC.epw
LANZHOU,-,CHN,SWERA,528890,36.05,103.88,8.0,1518.0',https://energyplus-weather.s3.amazonaws.com/asia_wmo_region_2/CHN/CHN_Gansu.Lanzhou.528890_SWERA/CHN_Gansu.Lanzhou.528890_SWERA.epw
Minqin,Gansu,CHN,CSWD,526810,38.63,103.08,8.0,1367.5',https://energyplus-weather.s3.amazonaws.com/asia_wmo_region_2/CHN/CHN_Gansu.Minqin.526810_CSWD/CHN_Gansu.Minqin.526810_CSWD.epw
MINQIN,-,CHN,SWERA,526810,38.77,103.10,8.0,1367.0',https://energyplus-weather.s3.amazonaws.com/asia_wmo_region_2/CHN/CHN_Gansu.Minqin.526810_SWERA/CHN_Gansu.Minqin.526810_SWERA.epw
Minxian,Gansu,CHN,CSWD,560930,34.43,104.02,8.0,2315.0',https://energyplus-weather.s3.amazonaws.com/asia_wmo_region_2/CHN/CHN_Gansu.Minxian.560930_CSWD/CHN_Gansu.Minxian.560930_CSWD.epw
Pingliang,Gansu,CHN,CSWD,539150,35.55,106.67,8.0,1346.6',https://energyplus-weather.s3.amazonaws.com/asia_wmo_region_2/CHN/CHN_Gansu.Pingliang.539150_CSWD/CHN_Gansu.Pingliang.539150_CSWD.epw
Tianshui,Gansu,CHN,CSWD,570060,34.58,105.75,8.0,1141.7',https://energyplus-weather.s3.amazonaws.com/asia_wmo_region_2/CHN/CHN_Gansu.Tianshui.570060_CSWD/CHN_Gansu.Tianshui.570060_CSWD.epw
Wudu,Gansu,CHN,CSWD,560960,33.40,104.92,8.0,1079.1',https://energyplus-weather.s3.amazonaws.com/asia_wmo_region_2/CHN/CHN_Gansu.Wudu.560960_CSWD/CHN_Gansu.Wudu.560960_CSWD.epw
WUDU,-,CHN,SWERA,560960,33.40,104.92,8.0,1079.0',https://energyplus-weather.s3.amazonaws.com/asia_wmo_region_2/CHN/CHN_Gansu.Wudu.560960_SWERA/CHN_Gansu.Wudu.560960_SWERA.epw
Wushaoling,Gansu,CHN,CSWD,527870,37.20,102.87,8.0,3045.1',https://energyplus-weather.s3.amazonaws.com/asia_wmo_region_2/CHN/CHN_Gansu.Wushaoling.527870_CSWD/CHN_Gansu.Wushaoling.527870_CSWD.epw
Xifengzhen,Gansu,CHN,CSWD,539230,35.73,107.63,8.0,1421.0',https://energyplus-weather.s3.amazonaws.com/asia_wmo_region_2/CHN/CHN_Gansu.Xifengzhen.539230_CSWD/CHN_Gansu.Xifengzhen.539230_CSWD.epw
Yumenzhen,Gansu,CHN,CSWD,524360,40.27,97.03,8.0,1526.0',https://energyplus-weather.s3.amazonaws.com/asia_wmo_region_2/CHN/CHN_Gansu.Yumenzhen.524360_CSWD/CHN_Gansu.Yumenzhen.524360_CSWD.epw
YUMENZHEN,-,CHN,SWERA,524360,40.27,97.03,8.0,1527.0',https://energyplus-weather.s3.amazonaws.com/asia_wmo_region_2/CHN/CHN_Gansu.Yumenzhen.524360_SWERA/CHN_Gansu.Yumenzhen.524360_SWERA.epw
Yuzhong,Gansu,CHN,CSWD,529830,35.87,104.15,8.0,1874.4',https://energyplus-weather.s3.amazonaws.com/asia_wmo_region_2/CHN/CHN_Gansu.Yuzhong.529830_CSWD/CHN_Gansu.Yuzhong.529830_CSWD.epw
Dianbai,Guangdong,CHN,CSWD,596640,21.50,111.00,8.0,11.8',https://energyplus-weather.s3.amazonaws.com/asia_wmo_region_2/CHN/CHN_Guangdong.Dianbai.596640_CSWD/CHN_Guangdong.Dianbai.596640_CSWD.epw
Guangzhou,Guangdong,CHN,CSWD,592870,23.17,113.33,8.0,41.0',https://energyplus-weather.s3.amazonaws.com/asia_wmo_region_2/CHN/CHN_Guangdong.Guangzhou.592870_CSWD/CHN_Guangdong.Guangzhou.592870_CSWD.epw
GUANGZHOU,-,CHN,IWEC Data,592870,23.13,113.32,8.0,8.0',https://energyplus-weather.s3.amazonaws.com/asia_wmo_region_2/CHN/CHN_Guangdong.Guangzhou.592870_IWEC/CHN_Guangdong.Guangzhou.592870_IWEC.epw
Heyuan,Guangdong,CHN,CSWD,592930,23.73,114.68,8.0,40.6',https://energyplus-weather.s3.amazonaws.com/asia_wmo_region_2/CHN/CHN_Guangdong.Heyuan.592930_CSWD/CHN_Guangdong.Heyuan.592930_CSWD.epw
Nanxiong,Guangdong,CHN,CSWD,579960,25.13,114.32,8.0,133.8',https://energyplus-weather.s3.amazonaws.com/asia_wmo_region_2/CHN/CHN_Guangdong.Nanxiong.579960_CSWD/CHN_Guangdong.Nanxiong.579960_CSWD.epw
Shantou,Guangdong,CHN,CSWD,593160,23.40,116.68,8.0,2.9',https://energyplus-weather.s3.amazonaws.com/asia_wmo_region_2/CHN/CHN_Guangdong.Shantou.593160_CSWD/CHN_Guangdong.Shantou.593160_CSWD.epw
Shanwei,Guangdong,CHN,CSWD,595010,22.80,115.37,8.0,17.3',https://energyplus-weather.s3.amazonaws.com/asia_wmo_region_2/CHN/CHN_Guangdong.Shanwei.595010_CSWD/CHN_Guangdong.Shanwei.595010_CSWD.epw
Shaoguan,Guangdong,CHN,CSWD,590820,24.68,113.60,8.0,61.0',https://energyplus-weather.s3.amazonaws.com/asia_wmo_region_2/CHN/CHN_Guangdong.Shaoguan.590820_CSWD/CHN_Guangdong.Shaoguan.590820_CSWD.epw
SHENZHEN,-,CHN,SWERA,594930,22.55,114.10,8.0,18.0',https://energyplus-weather.s3.amazonaws.com/asia_wmo_region_2/CHN/CHN_Guangdong.Shenzhen.594930_SWERA/CHN_Guangdong.Shenzhen.594930_SWERA.epw
Yangjiang,Guangdong,CHN,CSWD,596630,21.87,111.97,8.0,23.3',https://energyplus-weather.s3.amazonaws.com/asia_wmo_region_2/CHN/CHN_Guangdong.Yangjiang.596630_CSWD/CHN_Guangdong.Yangjiang.596630_CSWD.epw
Zhengcheng,Guangdong,CHN,CSWD,592940,23.33,113.83,8.0,38.9',https://energyplus-weather.s3.amazonaws.com/asia_wmo_region_2/CHN/CHN_Guangdong.Zhengcheng.592940_CSWD/CHN_Guangdong.Zhengcheng.592940_CSWD.epw
Baise,Guangxi Zhuang,CHN,CSWD,592110,23.90,106.60,8.0,173.5',https://energyplus-weather.s3.amazonaws.com/asia_wmo_region_2/CHN/CHN_Guangxi.Zhuang.Baise.592110_CSWD/CHN_Guangxi.Zhuang.Baise.592110_CSWD.epw
Duan,Guangxi Zhuang,CHN,CSWD,590370,23.93,108.10,8.0,170.8',https://energyplus-weather.s3.amazonaws.com/asia_wmo_region_2/CHN/CHN_Guangxi.Zhuang.Duan.590370_CSWD/CHN_Guangxi.Zhuang.Duan.590370_CSWD.epw
Guilin,Guangxi Zhuang,CHN,CSWD,579570,25.32,110.30,8.0,164.4',https://energyplus-weather.s3.amazonaws.com/asia_wmo_region_2/CHN/CHN_Guangxi.Zhuang.Guilin.579570_CSWD/CHN_Guangxi.Zhuang.Guilin.579570_CSWD.epw
Guiping,Guangxi Zhuang,CHN,CSWD,592540,23.40,110.08,8.0,42.5',https://energyplus-weather.s3.amazonaws.com/asia_wmo_region_2/CHN/CHN_Guangxi.Zhuang.Guiping.592540_CSWD/CHN_Guangxi.Zhuang.Guiping.592540_CSWD.epw
Hechi,Guangxi Zhuang,CHN,CSWD,590230,24.70,108.05,8.0,211.0',https://energyplus-weather.s3.amazonaws.com/asia_wmo_region_2/CHN/CHN_Guangxi.Zhuang.Hechi.590230_CSWD/CHN_Guangxi.Zhuang.Hechi.590230_CSWD.epw
Lingshan,Guangxi Zhuang,CHN,CSWD,594460,22.42,109.30,8.0,66.6',https://energyplus-weather.s3.amazonaws.com/asia_wmo_region_2/CHN/CHN_Guangxi.Zhuang.Lingshan.594460_CSWD/CHN_Guangxi.Zhuang.Lingshan.594460_CSWD.epw
Longzhou,Guangxi Zhuang,CHN,CSWD,594170,22.33,106.85,8.0,128.8',https://energyplus-weather.s3.amazonaws.com/asia_wmo_region_2/CHN/CHN_Guangxi.Zhuang.Longzhou.594170_CSWD/CHN_Guangxi.Zhuang.Longzhou.594170_CSWD.epw
Nanning,Guangxi Zhuang,CHN,CSWD,594310,22.63,108.22,8.0,121.6',https://energyplus-weather.s3.amazonaws.com/asia_wmo_region_2/CHN/CHN_Guangxi.Zhuang.Nanning.594310_CSWD/CHN_Guangxi.Zhuang.Nanning.594310_CSWD.epw
Qinzhou,Guangxi Zhuang,CHN,CSWD,596320,21.95,108.62,8.0,4.5',https://energyplus-weather.s3.amazonaws.com/asia_wmo_region_2/CHN/CHN_Guangxi.Zhuang.Qinzhou.596320_CSWD/CHN_Guangxi.Zhuang.Qinzhou.596320_CSWD.epw
Wuzhou,Guangxi Zhuang,CHN,CSWD,592650,23.48,111.30,8.0,114.8',https://energyplus-weather.s3.amazonaws.com/asia_wmo_region_2/CHN/CHN_Guangxi.Zhuang.Wuzhou.592650_CSWD/CHN_Guangxi.Zhuang.Wuzhou.592650_CSWD.epw
Bijie,Guizhou,CHN,CSWD,577070,27.30,105.28,8.0,1510.6',https://energyplus-weather.s3.amazonaws.com/asia_wmo_region_2/CHN/CHN_Guizhou.Bijie.577070_CSWD/CHN_Guizhou.Bijie.577070_CSWD.epw
Guiyang,Guizhou,CHN,CSWD,578160,26.58,106.73,8.0,1223.8',https://energyplus-weather.s3.amazonaws.com/asia_wmo_region_2/CHN/CHN_Guizhou.Guiyang.578160_CSWD/CHN_Guizhou.Guiyang.578160_CSWD.epw
GUIYANG,-,CHN,SWERA,578160,26.58,106.72,8.0,1074.0',https://energyplus-weather.s3.amazonaws.com/asia_wmo_region_2/CHN/CHN_Guizhou.Guiyang.578160_SWERA/CHN_Guizhou.Guiyang.578160_SWERA.epw
Sansui,Guizhou,CHN,CSWD,578320,26.97,108.67,8.0,626.9',https://energyplus-weather.s3.amazonaws.com/asia_wmo_region_2/CHN/CHN_Guizhou.Sansui.578320_CSWD/CHN_Guizhou.Sansui.578320_CSWD.epw
Tongzi,Guizhou,CHN,CSWD,576060,28.13,106.83,8.0,972.0',https://energyplus-weather.s3.amazonaws.com/asia_wmo_region_2/CHN/CHN_Guizhou.Tongzi.576060_CSWD/CHN_Guizhou.Tongzi.576060_CSWD.epw
Weining,Guizhou,CHN,CSWD,566910,26.87,104.28,8.0,2237.5',https://energyplus-weather.s3.amazonaws.com/asia_wmo_region_2/CHN/CHN_Guizhou.Weining.566910_CSWD/CHN_Guizhou.Weining.566910_CSWD.epw
Xingyi,Guizhou,CHN,CSWD,579020,25.43,105.18,8.0,1378.5',https://energyplus-weather.s3.amazonaws.com/asia_wmo_region_2/CHN/CHN_Guizhou.Xingyi.579020_CSWD/CHN_Guizhou.Xingyi.579020_CSWD.epw
Zunyi,Guizhou,CHN,CSWD,577130,27.70,106.88,8.0,843.9',https://energyplus-weather.s3.amazonaws.com/asia_wmo_region_2/CHN/CHN_Guizhou.Zunyi.577130_CSWD/CHN_Guizhou.Zunyi.577130_CSWD.epw
Dongfang,Hainan,CHN,CSWD,598380,19.10,108.62,8.0,8.4',https://energyplus-weather.s3.amazonaws.com/asia_wmo_region_2/CHN/CHN_Hainan.Dongfang.598380_CSWD/CHN_Hainan.Dongfang.598380_CSWD.epw
Haikou,Hainan,CHN,CSWD,597580,20.03,110.35,8.0,13.9',https://energyplus-weather.s3.amazonaws.com/asia_wmo_region_2/CHN/CHN_Hainan.Haikou.597580_CSWD/CHN_Hainan.Haikou.597580_CSWD.epw
Qionghai,Hainan,CHN,CSWD,598550,19.23,110.47,8.0,24.0',https://energyplus-weather.s3.amazonaws.com/asia_wmo_region_2/CHN/CHN_Hainan.Qionghai.598550_CSWD/CHN_Hainan.Qionghai.598550_CSWD.epw
Chengde,Hebei,CHN,CSWD,544230,40.98,117.95,8.0,385.9',https://energyplus-weather.s3.amazonaws.com/asia_wmo_region_2/CHN/CHN_Hebei.Chengde.544230_CSWD/CHN_Hebei.Chengde.544230_CSWD.epw
Fengning,Hebei,CHN,CSWD,543080,41.22,116.63,8.0,661.2',https://energyplus-weather.s3.amazonaws.com/asia_wmo_region_2/CHN/CHN_Hebei.Fengning.543080_CSWD/CHN_Hebei.Fengning.543080_CSWD.epw
Huailai,Hebei,CHN,CSWD,544050,40.40,115.50,8.0,536.0',https://energyplus-weather.s3.amazonaws.com/asia_wmo_region_2/CHN/CHN_Hebei.Huailai.544050_CSWD/CHN_Hebei.Huailai.544050_CSWD.epw
